,STN_ID,STATION_NAME,PROV_STATE_TERR_CODE,ENG_PROV_NAME,FRE_PROV_NAME,COUNTRY,LATITUDE,LONGITUDE,TIMEZONE,ELEVATION,CLIMATE_IDENTIFIER,TC_IDENTIFIER,WMO_IDENTIFIER,STATION_TYPE,NORMAL_CODE,PUBLICATION_CODE,DISPLAY_CODE,ENG_STN_OPERATOR_ACRONYM,FRE_STN_OPERATOR_ACRONYM,ENG_STN_OPERATOR_NAME,FRE_STN_OPERATOR_NAME,DLY_FIRST_DATE,DLY_LAST_DATE,FIRST_DATE,LAST_DATE,HAS_MONTHLY_SUMMARY,HAS_NORMALS_DATA
0,3692,WINNIPEG BROOKLANDS,MB,MANITOBA,MANITOBA,CAN,49.5,-97.11,CST,,5023180,,,UNKNOWN,,1.0,9.0,,,,,1955-04-01,1955-08-31,1955-01-01 00:00:00,1955-12-01 00:00:00,Y,N
1,48951,NORWAY HOUSE,MB,MANITOBA,MANITOBA,CAN,53.573,-97.5039,CST,223.70,5062040,YNE,71410,NCA,,,,NAVCAN,NAVCAN,NAV Canada,NAV Canada,2010-09-23,2021-04-30,2010-09-20 11:00:00,2021-04-30 12:30:37,Y,N
2,53318,BERENS RIVER A,MB,MANITOBA,MANITOBA,CAN,52.2132,-97.0105,CST,222.20,5030204,YBV,,NCA,,,,NAVCAN,NAVCAN,NAV Canada,NAV Canada,2018-10-29,2021-04-30,2015-01-15 13:00:00,2021-04-30 12:30:37,Y,N
3,3469,BIRTLE,MB,MANITOBA,MANITOBA,CAN,50.26,-101.03,CST,522.00,5010240,,,DAILY CLIMATE,C,1.0,4.0,,,,,1883-02-01,2000-11-30,1883-01-01 00:00:00,2000-11-30 00:00:00,Y,N
4,10882,BACHELORS ISLAND MARINE,MB,MANITOBA,MANITOBA,CAN,51.45,-99.54,CST,255.90,5040131,WBL,71143,AU8,G,1.0,8.0,ECCC - MSC,ECCC - SMC,Environment and Climate Change Canada - Meteorological Service of Canada,Environnement et Changement climatique Canada - Service météorologique du Canada,1994-07-06,2012-11-05,1994-02-01 00:15:00,2012-11-05 13:00:00,Y,N
5,3740,GRAND RAPIDS,MB,MANITOBA,MANITOBA,CAN,53.11,-99.16,CST,222.50,5031110,,,UNKNOWN,F,1.0,7.0,,,,,1960-07-01,1979-05-31,1960-01-01 00:00:00,1979-12-01 00:00:00,Y,N
6,48128,CYPRESS RIVER RCS,MB,MANITOBA,MANITOBA,CAN,49.3344,-99.0426,CST,374.00,5010641,POY,71239,AU8,,,,ECCC - MSC,ECCC - SMC,Environment and Climate Change Canada - Meteorological Service of Canada,Environnement et Changement climatique Canada - Service météorologique du Canada,2009-09-11,2021-04-30,2009-09-09 13:00:00,2021-04-30 12:30:37,Y,N
7,3906,THOMPSON NRC,MB,MANITOBA,MANITOBA,CAN,55.44,-97.51,CST,212.80,5062923,,,UNKNOWN,,1.0,9.0,,,,,1966-10-01,1969-04-30,1966-01-01 00:00:00,1969-12-01 00:00:00,Y,N
8,3609,HOLLAND,MB,MANITOBA,MANITOBA,CAN,49.3622,-98.523,CST,374.90,5021302,,,DAILY CLIMATE,E,1.0,6.0,CCN,RCSC,Co-operative Climate Network,Réseau coopératif de stations climatiques,1984-08-01,2021-04-29,1984-01-01 00:00:00,2021-04-29 00:00:00,Y,N
9,3537,SANDY LAKE,MB,MANITOBA,MANITOBA,CAN,50.3,-100.06,CST,624.80,5012620,,,DAILY CLIMATE,F,1.0,7.0,,,,,1973-05-01,2005-03-31,1973-01-01 00:00:00,2005-03-31 00:00:00,Y,N
10,48969,CHURCHILL A,MB,MANITOBA,MANITOBA,CAN,58.4421,-94.0359,CST,29.30,5060595,YYQ,71618,NCA,,,,NAVCAN,NAVCAN,NAV Canada,NAV Canada,2010-11-18,2021-04-30,2010-11-15 09:00:00,2021-04-30 12:30:37,Y,N
11,29796,REINDEER LAKE,MB,MANITOBA,MANITOBA,CAN,57.53,-101.4,CST,225.00,5062350,,,AU7,G,1.0,9.0,,,,,2000-02-01,2001-10-31,2000-02-01 00:00:00,2001-10-31 00:00:00,Y,N
12,3881,KELSEY HYDRO,MB,MANITOBA,MANITOBA,CAN,56.02,-96.32,CST,182.90,5061423,,,,F,1.0,7.0,,,,,1983-12-01,1995-11-30,1983-01-01 00:00:00,1995-11-30 00:00:00,Y,N
13,3481,CYPRESS RIVER,MB,MANITOBA,MANITOBA,CAN,49.33,-99.05,CST,374.30,5010640,,,DAILY CLIMATE,A,1.0,1.0,,,,,1904-06-01,2012-03-30,1904-01-01 00:00:00,2012-03-30 00:00:00,N,Y
14,3768,FORK RIVER NORTH,MB,MANITOBA,MANITOBA,CAN,51.34,-99.59,CST,259.70,5040R73,,,DAILY CLIMATE,E,1.0,6.0,,,,,1982-07-01,2002-04-30,1982-01-01 00:00:00,2002-04-30 00:00:00,Y,N
15,3653,PLUM COULEE,MB,MANITOBA,MANITOBA,CAN,49.03,-97.48,CST,265.20,5022245,,,DAILY CLIMATE,A,1.0,1.0,,,,,1961-06-01,2003-08-31,1961-01-01 00:00:00,2003-08-31 00:00:00,Y,Y
16,26857,CARMAN U OF M CS,MB,MANITOBA,MANITOBA,CAN,49.29532,-98.01471,CST,268.20,502I001,WNK,71147,AU8,F,1.0,7.0,ECCC - MSC,ECCC - SMC,Environment and Climate Change Canada - Meteorological Service of Canada,Environnement et Changement climatique Canada - Service météorologique du Canada,1995-06-27,2021-04-30,1995-06-27 00:00:00,2021-04-30 12:30:37,Y,N
17,3750,PINAWA,MB,MANITOBA,MANITOBA,CAN,50.13,-95.55,CST,259.10,5032160,,,UNKNOWN,,1.0,9.0,,,,,1915-06-01,1951-09-30,1915-01-01 00:00:00,1951-12-01 00:00:00,Y,N
18,3911,WHISKEY JACK,MB,MANITOBA,MANITOBA,CAN,54.26,-98.01,CST,221.00,5063148,,,UNKNOWN,G,1.0,8.0,,,,,1971-01-01,1972-04-30,1971-01-01 00:00:00,1972-12-01 00:00:00,Y,N
19,3475,CARROLL 2W,MB,MANITOBA,MANITOBA,CAN,49.36,-100.04,CST,457.20,50105ED,,,UNKNOWN,G,1.0,9.0,,,,,1973-09-01,1975-04-30,1973-01-01 00:00:00,1975-12-01 00:00:00,Y,N
20,10217,GILLAM,MB,MANITOBA,MANITOBA,CAN,56.2132028,-94.4215024,CST,145.30,5060999,WGX,,AU8,G,1.0,8.0,ECCC - MSC,ECCC - SMC,Environment and Climate Change Canada - Meteorological Service of Canada,Environnement et Changement climatique Canada - Service météorologique du Canada,1996-09-01,2021-04-30,1994-02-01 01:15:00,2021-04-30 12:30:37,Y,N
21,10186,PINAWA,MB,MANITOBA,MANITOBA,CAN,50.103802,-96.0353,CST,268.00,503B1ER,WEA,71448,AU8,G,1.0,8.0,ECCC - MSC,ECCC - SMC,Environment and Climate Change Canada - Meteorological Service of Canada,Environnement et Changement climatique Canada - Service météorologique du Canada,1992-12-01,2021-04-30,1992-12-01 00:00:00,2021-04-30 12:30:37,Y,N
22,3553,TURTLE MOUNTAIN 2,MB,MANITOBA,MANITOBA,CAN,49.05,-100.47,CST,472.10,5012937,,,UNKNOWN,G,1.0,8.0,,,,,1978-10-01,1986-05-31,1978-01-01 00:00:00,1986-12-01 00:00:00,Y,N
23,3890,NORWAY HOUSE,MB,MANITOBA,MANITOBA,CAN,53.59,-97.5,CST,217.00,5062047,,,UNKNOWN,,1.0,9.0,,,,,1884-10-01,1968-03-31,1884-10-01 00:00:00,1968-12-01 00:00:00,Y,N
24,3631,MYRTLE,MB,MANITOBA,MANITOBA,CAN,49.24,-97.47,CST,247.80,5021975,,,DAILY CLIMATE,A,1.0,1.0,,,,,1966-06-01,2003-11-30,1966-01-01 00:00:00,2003-11-30 00:00:00,Y,Y
25,3788,ERIKSDALE 1,MB,MANITOBA,MANITOBA,CAN,50.52,-98.08,CST,268.20,5040896,,,UNKNOWN,F,1.0,7.0,,,,,1978-08-01,1988-05-31,1978-01-01 00:00:00,1988-12-01 00:00:00,Y,N
26,3500,HARTNEY,MB,MANITOBA,MANITOBA,CAN,49.3,-100.32,CST,428.20,5011283,,,UNKNOWN,G,1.0,8.0,,,,,1979-05-01,1984-10-31,1979-01-01 00:00:00,1984-12-01 00:00:00,Y,N
27,43194,WINNIPEG FED LAB,MB,MANITOBA,MANITOBA,CAN,49.5429,-97.0948,CST,230.00,5023284,,,DAILY CLIMATE,,,,,,,,2004-11-01,2008-04-28,2004-11-01 00:00:00,2008-04-28 00:00:00,Y,N
28,3730,ELMA,MB,MANITOBA,MANITOBA,CAN,49.46,-95.56,CST,292.70,5030869,,,UNKNOWN,G,1.0,8.0,,,,,1978-06-01,1992-10-31,1978-01-01 00:00:00,1992-12-01 00:00:00,Y,N
29,43193,WINNIPEG WTC STAPON,MB,MANITOBA,MANITOBA,CAN,49.5402,-97.0353,CST,234.00,5023283,,,DAILY CLIMATE,,,,,,,,2004-10-01,2008-12-09,2004-10-01 00:00:00,2008-12-09 00:00:00,Y,N
30,3641,OAKBANK,MB,MANITOBA,MANITOBA,CAN,49.56,-96.51,CST,245.60,5022051,,,DAILY CLIMATE,E,1.0,6.0,CCN,RCSC,Co-operative Climate Network,Réseau coopératif de stations climatiques,1885-04-01,2021-04-28,1885-01-01 00:00:00,2021-04-28 00:00:00,Y,N
31,3570,CARMAN 3,MB,MANITOBA,MANITOBA,CAN,49.31,-97.57,CST,258.50,5020N53,,,UNKNOWN,G,1.0,8.0,,,,,1984-09-01,1987-08-31,1984-01-01 00:00:00,1987-12-01 00:00:00,Y,N
32,3717,ARBORG,MB,MANITOBA,MANITOBA,CAN,50.56,-97.05,CST,224.00,5030080,,,DAILY CLIMATE,A,1.0,1.0,,,,,1951-01-01,2016-06-13,1951-01-01 00:00:00,2016-06-13 00:00:00,N,Y
33,3569,WHITE HORSE PLAINS,MB,MANITOBA,MANITOBA,CAN,49.56,-97.36,CST,237.40,502LA48,,,UNKNOWN,G,1.0,9.0,,,,,1988-06-01,1989-10-31,1988-01-01 00:00:00,1989-12-01 00:00:00,Y,N
34,3485,EDWIN,MB,MANITOBA,MANITOBA,CAN,49.49,-98.31,CST,300.80,5010859,,,UNKNOWN,G,1.0,9.0,,,,,1986-08-01,1986-10-31,1986-01-01 00:00:00,1986-12-01 00:00:00,Y,N
35,3895,PONTON,MB,MANITOBA,MANITOBA,CAN,54.4,-99.1,CST,259.10,5062251,,,UNKNOWN,G,1.0,9.0,,,,,1981-07-01,1981-11-30,1981-01-01 00:00:00,1981-12-01 00:00:00,Y,N
36,29593,MORDEN CDA CS,MB,MANITOBA,MANITOBA,CAN,49.11155,-98.05022,CST,297.50,5021849,XMD,71564,AU8,G,1.0,8.0,ECCC - MSC,ECCC - SMC,Environment and Climate Change Canada - Meteorological Service of Canada,Environnement et Changement climatique Canada - Service météorologique du Canada,1999-12-01,2021-04-30,1999-12-01 00:00:00,2021-04-30 12:30:37,Y,N
37,3829,NEEPAWA A,MB,MANITOBA,MANITOBA,CAN,50.14,-99.3,CST,388.00,5042000,,,UNKNOWN,,1.0,9.0,,,,,1945-10-01,1962-10-31,1945-01-01 00:00:00,1962-12-01 00:00:00,Y,N
38,47367,VIRDEN WATER,MB,MANITOBA,MANITOBA,CAN,49.50295,-100.56037,CST,439.50,5012961,,,DAILY CLIMATE,,,,CCN,RCSC,Co-operative Climate Network,Réseau coopératif de stations climatiques,2008-07-25,2021-04-18,2008-07-25 00:00:00,2021-04-18 00:00:00,Y,N
39,3865,THE PAS CDA EPF,MB,MANITOBA,MANITOBA,CAN,53.49,-101.15,CST,271.30,5052896,,,UNKNOWN,,1.0,9.0,,,,,1951-05-01,1964-08-31,1951-01-01 00:00:00,1964-12-01 00:00:00,Y,N
40,3732,FISHER BRANCH,MB,MANITOBA,MANITOBA,CAN,51.06,-97.33,CST,246.90,5030916,,,DAILY CLIMATE,G,1.0,8.0,,,,,1970-06-01,2005-10-31,1970-01-01 00:00:00,2005-10-31 00:00:00,Y,N
41,3492,GLENBORO,MB,MANITOBA,MANITOBA,CAN,49.34,-99.2,CST,371.90,5011051,,,UNKNOWN,D,1.0,5.0,,,,,1970-06-01,1992-09-30,1970-01-01 00:00:00,1992-12-01 00:00:00,Y,N
42,3826,MOOSEHORN COOK,MB,MANITOBA,MANITOBA,CAN,51.17,-98.25,CST,265.20,5041804,,,UNKNOWN,F,1.0,7.0,,,,,1982-10-01,1993-03-31,1982-01-01 00:00:00,1993-12-01 00:00:00,Y,N
43,48868,DAUPHIN,MB,MANITOBA,MANITOBA,CAN,51.0603,-100.0309,CST,304.50,5040689,YDN,71036,NCA,,,,NAVCAN,NAVCAN,NAV Canada,NAV Canada,2010-07-29,2021-04-30,2010-07-26 08:00:00,2021-04-30 12:30:37,Y,N
44,3844,ST AMBROISE,MB,MANITOBA,MANITOBA,CAN,50.14,-98.02,CST,251.50,5042546,,,DAILY CLIMATE,F,1.0,7.0,,,,,1970-07-01,2004-02-29,1970-01-01 00:00:00,2004-02-29 00:00:00,Y,Y
45,3656,ROLAND,MB,MANITOBA,MANITOBA,CAN,49.25,-98.0,CST,266.70,5022480,,,UNKNOWN,F,1.0,7.0,,,,,1951-09-01,1980-09-30,1951-01-01 00:00:00,1980-12-01 00:00:00,Y,N
46,3603,GREEN RIDGE,MB,MANITOBA,MANITOBA,CAN,49.1,-96.59,CST,251.50,5021205,,,DAILY CLIMATE,A,1.0,2.0,,,,,1967-05-01,2004-10-31,1967-01-01 00:00:00,2004-10-31 00:00:00,Y,Y
47,3541,SHOAL LAKE,MB,MANITOBA,MANITOBA,CAN,50.29,-100.43,CST,624.80,5012676,,,UNKNOWN,F,1.0,7.0,,,,,1966-11-01,1977-10-31,1966-01-01 00:00:00,1977-12-01 00:00:00,Y,N
48,3655,RICHER,MB,MANITOBA,MANITOBA,CAN,49.39,-96.27,CST,291.10,5022420,,,DAILY CLIMATE,F,1.0,7.0,,,,,1979-05-01,1998-04-30,1979-01-01 00:00:00,1998-04-30 00:00:00,Y,N
49,3864,THE PAS A,MB,MANITOBA,MANITOBA,CAN,53.58,-101.06,CST,270.40,5052880,YQD,71867,CON,A,1.0,1.0,,,,,1943-01-01,2014-11-30,1943-01-01 00:00:00,2014-11-30 00:00:00,N,Y
50,3721,BERENS RIVER CS,MB,MANITOBA,MANITOBA,CAN,52.2135052,-97.0119032,CST,221.90,5030203,WCF,71158,AU8,F,1.0,7.0,ECCC - MSC,ECCC - SMC,Environment and Climate Change Canada - Meteorological Service of Canada,Environnement et Changement climatique Canada - Service météorologique du Canada,1985-07-01,2021-04-30,1985-01-01 00:00:00,2021-04-30 12:30:37,Y,N
51,3630,MORRIS 2,MB,MANITOBA,MANITOBA,CAN,49.26,-97.29,CST,237.70,5021965,,,DAILY CLIMATE,A,1.0,2.0,,,,,1961-06-01,2007-11-30,1961-01-01 00:00:00,2007-11-30 00:00:00,Y,Y
52,10185,MELITA,MB,MANITOBA,MANITOBA,CAN,49.16526,-100.59109,CST,445.90,501A7AR,WEI,71447,AU8,G,1.0,8.0,ECCC - MSC,ECCC - SMC,Environment and Climate Change Canada - Meteorological Service of Canada,Environnement et Changement climatique Canada - Service météorologique du Canada,1992-12-01,2021-04-30,1992-12-01 00:00:00,2021-04-30 12:30:37,Y,N
53,3852,VOGAR,MB,MANITOBA,MANITOBA,CAN,50.55,-98.45,CST,249.60,5043020,,,DAILY CLIMATE,A,1.0,1.0,,,,,1966-07-01,2008-07-28,1966-01-01 00:00:00,2008-07-28 00:00:00,N,Y
54,3841,RIDING MOUNTAIN PARK,MB,MANITOBA,MANITOBA,CAN,50.42,-99.41,CST,756.20,5042425,,,UNKNOWN,G,1.0,9.0,,,,,1960-08-01,1983-06-30,1960-01-01 00:00:00,1983-12-01 00:00:00,Y,N
55,3749,NARCISSE,MB,MANITOBA,MANITOBA,CAN,50.4,-97.39,CST,271.30,5031991,,,DAILY CLIMATE,D,1.0,5.0,,,,,1982-06-01,2014-11-26,1982-01-01 00:00:00,2014-11-26 00:00:00,Y,Y
56,3803,GYPSUMVILLE 2,MB,MANITOBA,MANITOBA,CAN,51.44,-98.4,CST,260.30,5041230,,,UNKNOWN,,1.0,9.0,,,,,1959-12-01,1966-09-30,1959-01-01 00:00:00,1966-12-01 00:00:00,Y,N
57,27741,CARBERRY CS,MB,MANITOBA,MANITOBA,CAN,49.54209,-99.21268,CST,383.50,5010547,WZE,71170,AU8,G,1.0,8.0,ECCC - MSC,ECCC - SMC,Environment and Climate Change Canada - Meteorological Service of Canada,Environnement et Changement climatique Canada - Service météorologique du Canada,1994-07-25,2021-04-30,1994-07-25 00:00:00,2021-04-30 12:30:37,Y,N
58,3547,STRATHCLAIR,MB,MANITOBA,MANITOBA,CAN,50.24,-100.24,CST,579.10,5012796,,,DAILY CLIMATE,A,1.0,1.0,,,,,1962-06-01,2013-10-30,1962-01-01 00:00:00,2013-10-30 00:00:00,N,Y
59,3684,VITA,MB,MANITOBA,MANITOBA,CAN,49.08,-96.34,CST,301.80,5023000,,,,F,1.0,7.0,,,,,1953-07-01,1995-12-31,1953-01-01 00:00:00,1995-12-31 00:00:00,Y,N
60,3886,LYNN LAKE,MB,MANITOBA,MANITOBA,CAN,56.51,-101.02,CST,339.90,5061640,,,UNKNOWN,,1.0,9.0,,,,,1952-04-01,1967-07-31,1952-01-01 00:00:00,1967-12-01 00:00:00,Y,N
61,3722,BISSETT,MB,MANITOBA,MANITOBA,CAN,50.58,-95.38,CST,,5030280,,,UNKNOWN,,1.0,9.0,,,,,1933-02-01,1952-01-31,1933-01-01 00:00:00,1952-12-01 00:00:00,Y,N
62,45987,PORTAGE ROMANCE,MB,MANITOBA,MANITOBA,CAN,49.59,-98.18,CST,262.40,5012300,,,DAILY CLIMATE,,,,CCN,RCSC,Co-operative Climate Network,Réseau coopératif de stations climatiques,2007-01-01,2021-04-28,2007-01-01 00:00:00,2021-04-28 00:00:00,Y,N
63,3666,ST EUSTACHE,MB,MANITOBA,MANITOBA,CAN,49.58,-97.47,CST,243.20,5022554,,,UNKNOWN,G,1.0,8.0,,,,,1989-09-01,1991-05-31,1989-01-01 00:00:00,1991-12-01 00:00:00,Y,N
64,43243,GREAT FALLS CLIMATE,MB,MANITOBA,MANITOBA,CAN,50.3120001,-95.5838,CST,253.00,5031201,PGF,71570,AU8,,,,ECCC - MSC,ECCC - SMC,Environment and Climate Change Canada - Meteorological Service of Canada,Environnement et Changement climatique Canada - Service météorologique du Canada,2005-01-20,2021-04-30,2005-01-20 00:00:00,2021-04-30 12:30:37,Y,N
65,3696,WINNIPEG E KILDONAN,MB,MANITOBA,MANITOBA,CAN,49.56,-97.06,CST,231.60,5023210,,,UNKNOWN,,1.0,9.0,,,,,1955-04-01,1959-06-30,1955-01-01 00:00:00,1959-12-01 00:00:00,Y,N
66,10885,HUNTERS POINT MARINE,MB,MANITOBA,MANITOBA,CAN,53.0139,-100.5605,CST,256.10,5051311,WHH,,AU8,G,1.0,8.0,,,,,1994-07-06,2005-06-19,1994-02-01 01:15:00,2005-06-20 02:00:00,Y,N
67,31107,MACGREGOR SOUTH,MB,MANITOBA,MANITOBA,CAN,49.505,-98.5,CST,361.80,5041680,,,DAILY CLIMATE,,1.0,9.0,,,,,2001-05-01,2007-08-31,2001-05-01 00:00:00,2007-08-31 00:00:00,Y,N
68,3667,ST LABRE,MB,MANITOBA,MANITOBA,CAN,49.2109,-96.0206,CST,352.00,5022575,,,DAILY CLIMATE,E,1.0,6.0,CCN,RCSC,Co-operative Climate Network,Réseau coopératif de stations climatiques,1981-09-01,2021-04-29,1981-01-01 00:00:00,2021-04-29 00:00:00,Y,Y
69,3778,BIRNIE,MB,MANITOBA,MANITOBA,CAN,50.3,-99.29,CST,432.80,5040230,,,UNKNOWN,G,1.0,8.0,,,,,1979-04-01,1983-09-30,1979-01-01 00:00:00,1983-12-01 00:00:00,Y,N
70,3791,FAIRFORD,MB,MANITOBA,MANITOBA,CAN,51.35,-98.4,CST,253.00,5040910,,,UNKNOWN,G,1.0,8.0,,,,,1973-12-01,1975-06-30,1973-01-01 00:00:00,1975-12-01 00:00:00,Y,N
71,3619,MARQUETTE,MB,MANITOBA,MANITOBA,CAN,50.00484,-97.48257,CST,243.80,5021695,,,DAILY CLIMATE,A,1.0,1.0,CCN,RCSC,Co-operative Climate Network,Réseau coopératif de stations climatiques,1969-11-01,2021-04-27,1969-01-01 00:00:00,2021-04-27 00:00:00,N,Y
72,43983,THE PAS CLIMATE,MB,MANITOBA,MANITOBA,CAN,53.58,-101.06,CST,274.00,5052890,PQD,71695,AU8,,,,ECCC - MSC,ECCC - SMC,Environment and Climate Change Canada - Meteorological Service of Canada,Environnement et Changement climatique Canada - Service météorologique du Canada,2005-08-22,2021-04-30,2005-08-22 00:00:00,2021-04-30 12:30:37,Y,N
73,3582,CARMAN,MB,MANITOBA,MANITOBA,CAN,49.26,-98.09,CST,281.90,5020551,,,DAILY CLIMATE,E,1.0,6.0,,,,,1964-07-01,2014-12-25,1964-01-01 00:00:00,2014-12-25 00:00:00,Y,N
74,29797,SPLIT LAKE,MB,MANITOBA,MANITOBA,CAN,56.15,-96.06,CST,60.00,5062751,,,AU7,G,1.0,9.0,,,,,2000-01-01,2000-09-30,2000-01-01 00:00:00,2000-09-30 00:00:00,Y,N
75,3783,DELTA MARSH CS,MB,MANITOBA,MANITOBA,CAN,50.10575,-98.22561,CST,248.40,5040764,ZUG,71563,AU8,A,1.0,1.0,ECCC - MSC,ECCC - SMC,Environment and Climate Change Canada - Meteorological Service of Canada,Environnement et Changement climatique Canada - Service météorologique du Canada,1967-11-01,2011-05-18,1967-01-01 00:00:00,2011-05-18 07:00:00,Y,Y
76,3872,CHURCHILL MARINE,MB,MANITOBA,MANITOBA,CAN,58.47,-94.11,CST,13.40,5060602,,,UNKNOWN,,1.0,9.0,,,,,1929-03-01,1951-06-30,1929-01-01 00:00:00,1951-12-01 00:00:00,Y,N
77,3458,ROSSBURN 4 NORTH,MB,MANITOBA,MANITOBA,CAN,50.45,-100.49,CST,609.60,501KE01,,,DAILY CLIMATE,E,1.0,6.0,CCN,RCSC,Co-operative Climate Network,Réseau coopératif de stations climatiques,1986-09-01,2021-04-29,1986-01-01 00:00:00,2021-04-29 00:00:00,Y,N
78,3595,EMERSON,MB,MANITOBA,MANITOBA,CAN,49.02,-97.11,CST,237.60,5020880,,,DAILY CLIMATE,D,1.0,5.0,,,,,1877-07-01,1997-07-31,1877-01-01 00:00:00,1997-07-31 00:00:00,Y,N
79,6886,ROSE ISLE,MB,MANITOBA,MANITOBA,CAN,49.33,-98.21,CST,308.50,5022492,,,UNKNOWN,F,1.0,7.0,,,,,1993-12-01,2002-05-31,1993-01-01 00:00:00,2002-05-31 00:00:00,Y,N
80,3479,CARDALE,MB,MANITOBA,MANITOBA,CAN,50.14,-100.2,CST,556.30,5010550,,,UNKNOWN,G,1.0,8.0,,,,,1966-11-01,1972-11-30,1966-01-01 00:00:00,1972-12-01 00:00:00,Y,N
81,3719,BEAUSEJOUR 2,MB,MANITOBA,MANITOBA,CAN,50.02,-96.28,CST,251.20,5030160,,,DAILY CLIMATE,C,1.0,4.0,,,,,1953-05-01,2005-03-31,1953-01-01 00:00:00,2005-03-31 00:00:00,Y,N
82,3584,CARTWRIGHT,MB,MANITOBA,MANITOBA,CAN,49.06,-99.21,CST,461.50,5020555,,,UNKNOWN,F,1.0,7.0,,,,,1883-04-01,1976-09-30,1883-01-01 00:00:00,1976-12-01 00:00:00,Y,N
83,3674,STARBUCK,MB,MANITOBA,MANITOBA,CAN,49.44,-97.37,CST,237.70,5022770,,,DAILY CLIMATE,A,1.0,1.0,,,,,1962-05-01,2004-04-30,1962-01-01 00:00:00,2004-04-30 00:00:00,Y,N
84,3567,WINNIPEG MCPHILLIPS SLEDGE BEDS,MB,MANITOBA,MANITOBA,CAN,49.49,-97.07,CST,288.60,502CKBD,,,UNKNOWN,G,1.0,9.0,,,,,1989-05-01,1992-08-31,1989-01-01 00:00:00,1992-12-01 00:00:00,Y,N
85,3912,YORK FACTORY,MB,MANITOBA,MANITOBA,CAN,57.0,-92.18,CST,6.00,5063350,,,,G,1.0,9.0,,,,,1874-10-01,2007-01-31,1874-01-01 00:00:00,2007-01-31 00:00:00,Y,N
86,3528,ROBLIN,MB,MANITOBA,MANITOBA,CAN,51.14,-101.23,CST,556.00,5012471,,,UNKNOWN,F,1.0,7.0,,,,,1969-11-01,1979-12-31,1969-01-01 00:00:00,1979-12-31 00:00:00,Y,N
87,3863,THE PAS,MB,MANITOBA,MANITOBA,CAN,53.49,-101.15,CST,271.30,5052864,,,UNKNOWN,,1.0,9.0,,,,,1910-06-01,1969-05-31,1910-01-01 00:00:00,1969-12-01 00:00:00,Y,N
88,3714,NORTH JULIUS,MB,MANITOBA,MANITOBA,CAN,50.04,-96.11,CST,290.20,503B0MF,,,DAILY CLIMATE,G,1.0,8.0,,,,,1986-11-01,1992-09-30,1986-01-01 00:00:00,1992-12-01 00:00:00,Y,N
89,3617,MARCHAND FORESTRY,MB,MANITOBA,MANITOBA,CAN,49.26,-96.16,CST,310.90,5021690,,,UNKNOWN,,1.0,9.0,,,,,1959-07-01,1960-07-31,1959-01-01 00:00:00,1960-12-01 00:00:00,Y,N
90,26866,DAUPHIN CS,MB,MANITOBA,MANITOBA,CAN,51.06014,-100.03248,CST,304.50,5040681,WZT,71550,AU8,,,,ECCC - MSC,ECCC - SMC,Environment and Climate Change Canada - Meteorological Service of Canada,Environnement et Changement climatique Canada - Service météorologique du Canada,1995-10-04,2021-04-30,1995-06-15 07:00:00,2021-04-30 12:30:37,Y,N
91,3618,MARCHAND W4,MB,MANITOBA,MANITOBA,CAN,49.26,-96.28,CST,301.80,5021692,,,DAILY CLIMATE,E,1.0,6.0,,,,,1980-12-01,1993-08-31,1980-01-01 00:00:00,1993-12-01 00:00:00,Y,N
92,3812,LAKE MANITOBA NARROWS,MB,MANITOBA,MANITOBA,CAN,51.05,-98.47,CST,251.50,5041527,,,UNKNOWN,G,1.0,9.0,,,,,1977-12-01,1978-02-28,1977-12-01 00:00:00,1978-12-01 00:00:00,Y,N
93,6951,INWOOD,MB,MANITOBA,MANITOBA,CAN,50.3,-97.3,CST,276.50,5031369,,,UNKNOWN,G,1.0,9.0,,,,,1991-03-01,1992-10-31,1991-01-01 00:00:00,1992-12-01 00:00:00,Y,N
94,3574,ALTONA SOUTH,MB,MANITOBA,MANITOBA,CAN,49.03,-97.34,CST,249.90,5020054,,,UNKNOWN,G,1.0,8.0,,,,,1984-09-01,1989-06-30,1984-01-01 00:00:00,1989-12-01 00:00:00,Y,N
95,3583,CARMAN 2,MB,MANITOBA,MANITOBA,CAN,49.31,-98.0,CST,265.20,5020553,,,UNKNOWN,E,1.0,6.0,,,,,1885-04-01,1981-10-31,1885-01-01 00:00:00,1981-12-01 00:00:00,Y,N
96,27870,SNOW LAKE ANDERSON BAY,MB,MANITOBA,MANITOBA,CAN,54.49,-99.57,CST,259.00,5062707,,,DAILY CLIMATE,G,1.0,9.0,,,,,1999-03-01,2000-03-31,1999-03-01 00:00:00,2000-03-31 00:00:00,Y,N
97,3771,ASHERN,MB,MANITOBA,MANITOBA,CAN,51.08,-98.22,CST,263.00,5040120,,,UNKNOWN,C,1.0,4.0,,,,,1951-01-01,1991-01-31,1951-01-01 00:00:00,1991-12-01 00:00:00,Y,N
98,3638,NINETTE,MB,MANITOBA,MANITOBA,CAN,49.24,-99.38,CST,416.70,5022040,,,UNKNOWN,G,1.0,8.0,,,,,1885-04-01,1978-03-31,1885-01-01 00:00:00,1978-12-01 00:00:00,Y,N
99,3818,MACGREGOR,MB,MANITOBA,MANITOBA,CAN,49.53,-98.49,CST,320.00,5041683,,,UNKNOWN,G,1.0,8.0,,,,,1969-07-01,1972-08-31,1969-01-01 00:00:00,1972-12-01 00:00:00,Y,N
100,3526,RIVERS,MB,MANITOBA,MANITOBA,CAN,50.02,-100.14,CST,475.50,5012439,,,UNKNOWN,G,1.0,8.0,,,,,1984-08-01,1991-01-31,1984-01-01 00:00:00,1991-11-01 00:00:00,Y,N
101,3568,WINNIPEG HURST RESERVOIR,MB,MANITOBA,MANITOBA,CAN,49.51,-97.11,CST,235.60,502C2JM,,,UNKNOWN,G,1.0,9.0,,,,,1989-05-01,1990-08-31,1989-01-01 00:00:00,1990-12-01 00:00:00,Y,N
102,10728,GIMLI INDUSTRIAL PARK,MB,MANITOBA,MANITOBA,CAN,50.38,-97.03,CST,230.10,50310D0,YGM,,AU5,G,1.0,8.0,,,,,1992-12-01,2010-03-01,1992-12-01 00:00:00,2010-03-01 10:00:00,Y,N
103,3470,BOGGY CREEK,MB,MANITOBA,MANITOBA,CAN,51.3219,-101.2328,CST,609.00,5010310,,,DAILY CLIMATE,F,1.0,7.0,,,,,1977-07-01,2014-06-21,1977-01-01 00:00:00,2014-06-21 00:00:00,Y,N
104,3900,SHAMATTAWA A,MB,MANITOBA,MANITOBA,CAN,55.52,-92.05,CST,89.90,5062656,,,UNKNOWN,,1.0,9.0,,,,,1985-10-01,1985-10-31,1985-10-01 00:00:00,1985-10-31 00:00:00,Y,N
105,3649,PILOT MOUND (AUT),MB,MANITOBA,MANITOBA,CAN,49.11277,-98.54175,CST,470.30,5022125,WPO,71148,AU8,D,1.0,5.0,ECCC - MSC,ECCC - SMC,Environment and Climate Change Canada - Meteorological Service of Canada,Environnement et Changement climatique Canada - Service météorologique du Canada,1957-12-01,2021-04-30,1957-01-01 00:00:00,2021-04-30 12:30:37,Y,N
106,3792,FORK RIVER,MB,MANITOBA,MANITOBA,CAN,51.31,-100.01,CST,266.70,5040973,,,DAILY CLIMATE,E,1.0,6.0,,,,,1982-07-01,2001-07-31,1982-01-01 00:00:00,2001-07-31 00:00:00,Y,N
107,3773,AUSTIN,MB,MANITOBA,MANITOBA,CAN,49.54,-98.59,CST,327.70,5040128,,,,G,1.0,8.0,,,,,1989-09-01,1995-08-31,1989-01-01 00:00:00,1995-08-31 00:00:00,Y,N
108,3797,GLADSTONE,MB,MANITOBA,MANITOBA,CAN,50.13,-98.57,CST,270.40,5041049,,,DAILY CLIMATE,F,1.0,7.0,,,,,1990-10-01,1998-05-31,1990-01-01 00:00:00,1998-05-31 00:00:00,Y,N
109,3628,MORRIS,MB,MANITOBA,MANITOBA,CAN,49.21,-97.22,CST,234.70,5021920,,,UNKNOWN,F,1.0,7.0,,,,,1883-04-01,1987-10-31,1883-01-01 00:00:00,1987-12-01 00:00:00,Y,N
110,3754,POINTE DU BOIS,MB,MANITOBA,MANITOBA,CAN,50.18,-95.33,CST,300.20,5032249,,,UNKNOWN,G,1.0,9.0,,,,,1967-05-01,1972-03-31,1967-01-01 00:00:00,1972-12-01 00:00:00,Y,N
111,3751,PINAWA WNRE,MB,MANITOBA,MANITOBA,CAN,50.105,-96.033,CST,266.70,5032162,,,DAILY CLIMATE,A,1.0,1.0,CCN,RCSC,Co-operative Climate Network,Réseau coopératif de stations climatiques,1963-12-01,2017-03-02,1963-01-01 00:00:00,2017-03-02 00:00:00,N,Y
112,3700,WINNIPEG ST BONIFACE,MB,MANITOBA,MANITOBA,CAN,49.53,-97.06,CST,232.00,5023230,,,UNKNOWN,,1.0,9.0,,,,,1955-05-01,1959-11-30,1955-01-01 00:00:00,1959-12-01 00:00:00,Y,N
113,3476,BROOKDALE,MB,MANITOBA,MANITOBA,CAN,50.01,-99.34,CST,392.40,5010524,,,DAILY CLIMATE,E,1.0,6.0,,,,,1987-08-01,2003-11-30,1987-01-01 00:00:00,2003-11-30 00:00:00,Y,N
114,3502,INGLIS,MB,MANITOBA,MANITOBA,CAN,50.54,-101.14,CST,594.40,5011360,,,UNKNOWN,,1.0,9.0,,,,,1949-08-01,1969-09-30,1949-01-01 00:00:00,1969-12-01 00:00:00,Y,N
115,3636,NINETTE COLE,MB,MANITOBA,MANITOBA,CAN,49.24,-99.38,CST,419.10,50220D0,,,UNKNOWN,G,1.0,9.0,,,,,1979-10-01,1979-10-31,1979-01-01 00:00:00,1979-12-01 00:00:00,Y,N
116,3698,WINNIPEG RICHARDSON INT'L A,MB,MANITOBA,MANITOBA,CAN,49.55,-97.14,CST,238.70,5023222,YWG,71852,FSS,A,1.0,1.0,,,,,1938-01-01,2008-07-24,1938-01-01 00:00:00,2013-01-17 12:00:00,N,Y
117,3905,THOMPSON A,MB,MANITOBA,MANITOBA,CAN,55.4812,-97.5145,CST,224.00,5062922,YTH,71079,FSS,A,1.0,1.0,,,,,1967-04-01,2014-11-05,1967-01-01 00:00:00,2014-11-06 12:00:00,N,Y
118,10213,FLIN FLON,MB,MANITOBA,MANITOBA,CAN,54.41,-101.41,CST,303.90,5050919,WFO,71954,AU8,G,1.0,8.0,ECCC - MSC,ECCC - SMC,Environment and Climate Change Canada - Meteorological Service of Canada,Environnement et Changement climatique Canada - Service météorologique du Canada,1996-09-01,2021-04-30,1994-02-01 00:15:00,2021-04-30 12:30:37,Y,N
119,3907,THOMPSON SOUTH,MB,MANITOBA,MANITOBA,CAN,55.44,-97.51,CST,199.90,5062925,,,UNKNOWN,G,1.0,9.0,,,,,1979-06-01,1979-09-30,1979-01-01 00:00:00,1979-12-01 00:00:00,Y,N
120,3898,RUTTAN LAKE,MB,MANITOBA,MANITOBA,CAN,56.37,-99.37,CST,304.80,5062528,,,UNKNOWN,G,1.0,9.0,,,,,1971-07-01,1972-09-30,1971-01-01 00:00:00,1972-12-01 00:00:00,Y,N
121,3796,GLADSTONE SOUTH,MB,MANITOBA,MANITOBA,CAN,50.11,-99.01,CST,281.90,50410N0,,,UNKNOWN,D,1.0,5.0,,,,,1973-05-01,1990-10-31,1973-01-01 00:00:00,1990-12-01 00:00:00,Y,N
122,43187,WINNIPEG CANGENE,MB,MANITOBA,MANITOBA,CAN,49.4815,-97.0844,CST,233.00,5023282,,,DAILY CLIMATE,,,,,,,,2004-10-01,2008-12-09,2004-10-01 00:00:00,2008-12-09 00:00:00,Y,N
123,3682,TURTLE MOUNTAIN 11,MB,MANITOBA,MANITOBA,CAN,49.08,-100.07,CST,579.10,5022946,,,DAILY CLIMATE,D,1.0,5.0,,,,,1978-11-01,2005-03-31,1978-01-01 00:00:00,2005-03-31 00:00:00,Y,Y
124,3854,WINNIPEGOSIS,MB,MANITOBA,MANITOBA,CAN,51.39,-99.56,CST,257.60,5043225,,,DAILY CLIMATE,G,1.0,8.0,,,,,1982-07-01,2007-07-31,1982-01-01 00:00:00,2007-07-31 00:00:00,Y,N
125,3823,MEADOW PORTAGE,MB,MANITOBA,MANITOBA,CAN,51.43,-99.33,CST,249.60,5041711,,,UNKNOWN,E,1.0,6.0,,,,,1970-09-01,1988-01-31,1970-01-01 00:00:00,1988-12-01 00:00:00,Y,N
126,31088,LANGRUTH WEST,MB,MANITOBA,MANITOBA,CAN,50.245,-98.481,CST,264.30,5041535,,,DAILY CLIMATE,,1.0,9.0,,,,,2001-08-01,2005-02-09,2001-08-01 00:00:00,2005-02-09 00:00:00,Y,N
127,3620,MIAMI,MB,MANITOBA,MANITOBA,CAN,49.22,-98.14,CST,310.00,5021732,,,UNKNOWN,,1.0,9.0,,,,,1933-01-01,1936-01-31,1933-01-01 00:00:00,1936-12-01 00:00:00,Y,N
128,3546,SOURIS,MB,MANITOBA,MANITOBA,CAN,49.37,-100.16,CST,426.70,5012720,,,UNKNOWN,G,1.0,9.0,,,,,1912-10-01,1972-10-31,1912-01-01 00:00:00,1972-12-01 00:00:00,Y,N
129,6883,STONEWALL,MB,MANITOBA,MANITOBA,CAN,50.13,-97.19,CST,248.40,502KGHG,,,,G,1.0,9.0,,,,,1992-09-01,1994-12-31,1992-01-01 00:00:00,1994-12-31 00:00:00,Y,N
130,30475,TADOULE LAKE CS,MB,MANITOBA,MANITOBA,CAN,58.4257,-98.3006,CST,262.00,5062840,XBQ,71334,AU8,G,1.0,9.0,ECCC - MSC,ECCC - SMC,Environment and Climate Change Canada - Meteorological Service of Canada,Environnement et Changement climatique Canada - Service météorologique du Canada,2000-09-01,2021-04-30,2000-09-01 00:00:00,2021-04-30 12:30:37,Y,N
131,3869,BIRD,MB,MANITOBA,MANITOBA,CAN,56.3,-94.12,CST,86.90,5060220,,,UNKNOWN,,1.0,9.0,,,,,1957-10-01,1963-12-31,1957-01-01 00:00:00,1963-12-31 23:00:00,Y,N
132,3627,MORDEN RADIO,MB,MANITOBA,MANITOBA,CAN,49.15,-98.0,CST,276.10,5021854,,,UNKNOWN,F,1.0,7.0,,,,,1980-08-01,1987-12-31,1980-01-01 00:00:00,1987-12-31 00:00:00,Y,N
133,3527,RIVERS A,MB,MANITOBA,MANITOBA,CAN,50.01,-100.19,CST,473.40,5012440,,,UNKNOWN,,1.0,9.0,,,,,1938-07-01,1970-10-31,1938-01-01 00:00:00,1983-10-30 21:00:00,Y,N
134,3695,WINNIPEG CLARE AVE,MB,MANITOBA,MANITOBA,CAN,49.52,-97.08,CST,232.60,5023200,,,UNKNOWN,,1.0,9.0,,,,,1955-05-01,1958-11-30,1955-01-01 00:00:00,1958-12-01 00:00:00,Y,N
135,3798,GLADSTONE,MB,MANITOBA,MANITOBA,CAN,50.22,-98.58,CST,271.30,5041050,,,UNKNOWN,F,1.0,7.0,,,,,1961-08-01,1976-05-31,1961-01-01 00:00:00,1976-12-01 00:00:00,Y,N
136,3763,GYPSUMVILLE,MB,MANITOBA,MANITOBA,CAN,51.46,-98.38,CST,259.70,504AKCQ,,,UNKNOWN,G,1.0,8.0,,,,,1985-02-01,1991-07-31,1985-01-01 00:00:00,1991-11-01 00:00:00,Y,N
137,3691,WINNIPEG BLUMBERG GOLF COURSE,MB,MANITOBA,MANITOBA,CAN,49.52,-97.21,CST,236.20,5023178,,,UNKNOWN,G,1.0,9.0,,,,,1989-05-01,1992-08-31,1989-01-01 00:00:00,1992-12-01 00:00:00,Y,N
138,3614,MANITOU STRANGE,MB,MANITOBA,MANITOBA,CAN,49.15,-98.31,CST,487.70,5021687,,,DAILY CLIMATE,D,1.0,5.0,,,,,1981-08-01,2006-02-28,1981-01-01 00:00:00,2006-02-28 00:00:00,Y,Y
139,3524,RESTON,MB,MANITOBA,MANITOBA,CAN,49.33,-101.06,CST,463.60,5012400,,,,G,1.0,8.0,,,,,1952-06-01,1994-06-30,1952-01-01 00:00:00,1994-12-01 00:00:00,Y,N
140,3612,LANDMARK,MB,MANITOBA,MANITOBA,CAN,49.4,-96.53,CST,240.80,5021529,,,DAILY CLIMATE,G,1.0,8.0,,,,,1980-08-01,1993-02-28,1980-01-01 00:00:00,1993-12-01 00:00:00,Y,N
141,3557,TURTLE MOUNTAIN 6,MB,MANITOBA,MANITOBA,CAN,49.18,-100.19,CST,502.90,5012941,,,DAILY CLIMATE,D,1.0,5.0,,,,,1978-10-01,2008-03-31,1978-01-01 00:00:00,2008-03-31 00:00:00,Y,Y
142,8993,FISHER BRANCH (AUT),MB,MANITOBA,MANITOBA,CAN,51.05001,-97.33162,CST,253.00,50309J6,WSZ,71442,AU8,G,1.0,8.0,ECCC - MSC,ECCC - SMC,Environment and Climate Change Canada - Meteorological Service of Canada,Environnement et Changement climatique Canada - Service météorologique du Canada,1992-12-02,2021-04-30,1992-12-02 00:00:00,2021-04-30 12:30:37,Y,N
143,27119,ROBLIN,MB,MANITOBA,MANITOBA,CAN,51.1100018,-101.2146068,CST,539.50,5012469,WXB,71553,AU8,G,1.0,8.0,ECCC - MSC,ECCC - SMC,Environment and Climate Change Canada - Meteorological Service of Canada,Environnement et Changement climatique Canada - Service météorologique du Canada,1996-03-01,2021-04-30,1996-03-01 00:00:00,2021-04-30 12:30:37,Y,N
144,3473,BRANDON SOUTH,MB,MANITOBA,MANITOBA,CAN,49.49,-99.57,CST,396.20,5010494,,,UNKNOWN,G,1.0,9.0,,,,,1972-05-01,1975-09-30,1972-01-01 00:00:00,1975-12-01 00:00:00,Y,N
145,10188,SWAN RIVER RCS,MB,MANITOBA,MANITOBA,CAN,52.06539,-101.13585,CST,334.80,504K80K,WEQ,71443,AU8,G,1.0,8.0,ECCC - MSC,ECCC - SMC,Environment and Climate Change Canada - Meteorological Service of Canada,Environnement et Changement climatique Canada - Service météorologique du Canada,1993-03-27,2021-04-30,1993-03-27 00:00:00,2021-04-30 12:30:37,Y,N
146,3713,ZHODA,MB,MANITOBA,MANITOBA,CAN,49.15,-96.31,CST,304.80,5023370,,,UNKNOWN,D,1.0,5.0,,,,,1980-11-01,2000-06-30,1980-01-01 00:00:00,2000-06-30 00:00:00,Y,N
147,3710,WINNIPEG WINDSOR GOLF COURSE,MB,MANITOBA,MANITOBA,CAN,49.52,-97.05,CST,230.10,5023274,,,UNKNOWN,G,1.0,9.0,,,,,1989-05-01,1992-08-31,1989-01-01 00:00:00,1992-12-01 00:00:00,Y,N
148,3759,SEVEN SISTERS FALLS,MB,MANITOBA,MANITOBA,CAN,50.07,-96.01,CST,266.70,5032640,,,UNKNOWN,,1.0,9.0,,,,,1950-09-01,1970-03-31,1950-01-01 00:00:00,1970-12-01 00:00:00,Y,N
149,3836,PINE RIVER,MB,MANITOBA,MANITOBA,CAN,51.43,-100.19,CST,312.40,5042167,,,UNKNOWN,,1.0,9.0,,,,,1963-10-01,1967-09-30,1963-01-01 00:00:00,1967-12-01 00:00:00,Y,N
150,7333,GEORGE ISLAND (AUT),MB,MANITOBA,MANITOBA,CAN,52.4907014,-97.3659028,CST,222.50,5030984,WWS,71445,AU8,G,1.0,8.0,ECCC - MSC,ECCC - SMC,Environment and Climate Change Canada - Meteorological Service of Canada,Environnement et Changement climatique Canada - Service météorologique du Canada,1994-12-29,2021-04-30,1994-02-01 00:26:00,2021-04-30 12:30:37,Y,N
151,3894,PIKWITONEI A,MB,MANITOBA,MANITOBA,CAN,55.35,-97.1,CST,192.00,5062111,,,DAILY CLIMATE,G,1.0,8.0,,,,,1987-11-01,1995-11-30,1987-01-01 00:00:00,1995-11-30 00:00:00,Y,N
152,3723,BISSETT,MB,MANITOBA,MANITOBA,CAN,51.02,-95.42,CST,259.00,5030282,,,NONE,C,1.0,4.0,,,,,1968-11-01,1997-06-30,1968-01-01 00:00:00,1997-06-30 00:00:00,Y,N
153,3761,SPRUCE TCPL 43,MB,MANITOBA,MANITOBA,CAN,49.39,-96.1,CST,310.30,5032764,,,UNKNOWN,F,1.0,7.0,,,,,1969-11-01,1983-01-31,1969-01-01 00:00:00,1983-12-01 00:00:00,Y,N
154,45007,GIMLI CLIMATE,MB,MANITOBA,MANITOBA,CAN,50.38,-97.03,CST,230.10,5031042,PGH,71748,AU8,,,,ECCC - MSC,ECCC - SMC,Environment and Climate Change Canada - Meteorological Service of Canada,Environnement et Changement climatique Canada - Service météorologique du Canada,2006-09-19,2021-04-30,2006-09-19 00:00:00,2021-04-30 12:30:37,Y,N
155,3606,GROSSE ISLE,MB,MANITOBA,MANITOBA,CAN,50.03,-97.26,CST,245.10,5021225,,,DAILY CLIMATE,A,1.0,2.0,,,,,1964-11-01,2007-11-30,1964-01-01 00:00:00,2007-11-30 00:00:00,Y,Y
156,3623,MIAMI THIESSEN,MB,MANITOBA,MANITOBA,CAN,49.27,-98.15,CST,297.00,5021737,,,DAILY CLIMATE,F,1.0,7.0,,,,,1964-07-01,2016-06-13,1964-01-01 00:00:00,2016-06-13 00:00:00,Y,N
157,6888,ST PIERRE JOLYS,MB,MANITOBA,MANITOBA,CAN,49.274208,-97.0049,CST,281.00,5022606,,,DAILY CLIMATE,F,1.0,7.0,,,,,1993-12-01,2005-05-31,1993-12-01 00:00:00,2005-05-31 00:00:00,Y,N
158,6882,SOURIS 2,MB,MANITOBA,MANITOBA,CAN,49.35,-100.24,CST,428.20,5012727,,,DAILY CLIMATE,G,1.0,8.0,,,,,1992-10-01,1996-06-30,1992-01-01 00:00:00,1996-06-30 00:00:00,Y,N
159,3521,RAPID CITY,MB,MANITOBA,MANITOBA,CAN,50.07,-99.56,CST,545.60,501233B,,,UNKNOWN,D,1.0,5.0,,,,,1977-08-01,1997-07-31,1977-01-01 00:00:00,1997-07-31 00:00:00,Y,N
160,3725,BRAINTREE 2,MB,MANITOBA,MANITOBA,CAN,49.36,-95.37,CST,315.50,5030335,,,,F,1.0,7.0,,,,,1983-11-01,1995-02-28,1983-01-01 00:00:00,1995-02-28 00:00:00,Y,N
161,3867,NORWAY HOUSE FORESTRY,MB,MANITOBA,MANITOBA,CAN,54.0,-97.48,CST,217.00,506B0M7,,,DAILY CLIMATE,C,1.0,4.0,,,,,1970-11-01,2000-07-31,1970-01-01 00:00:00,2000-07-31 00:00:00,Y,N
162,3493,GOODLANDS CDA EPF,MB,MANITOBA,MANITOBA,CAN,49.08,-100.36,CST,499.90,5011080,,,UNKNOWN,G,1.0,8.0,,,,,1951-01-01,1976-07-31,1951-01-01 00:00:00,1976-12-01 00:00:00,Y,N
163,3883,LAURIE RIVER POWER SITE,MB,MANITOBA,MANITOBA,CAN,56.14,-100.59,CST,304.80,5061540,,,UNKNOWN,,1.0,9.0,,,,,1960-07-01,1970-06-30,1960-01-01 00:00:00,1970-12-01 00:00:00,Y,N
164,6885,KALEIDA,MB,MANITOBA,MANITOBA,CAN,49.08,-98.28,CST,477.60,5021395,,,DAILY CLIMATE,F,1.0,7.0,,,,,1993-12-01,2000-05-31,1993-01-01 00:00:00,2000-05-31 00:00:00,Y,N
165,3687,WARREN,MB,MANITOBA,MANITOBA,CAN,50.08,-97.38,CST,248.40,5023110,,,UNKNOWN,F,1.0,7.0,,,,,1924-05-01,1991-10-31,1924-01-01 00:00:00,1991-12-01 00:00:00,Y,N
166,3677,STONY MOUNTAIN,MB,MANITOBA,MANITOBA,CAN,50.04,-97.14,CST,244.80,5022790,,,UNKNOWN,,1.0,9.0,,,,,1878-01-01,1919-12-31,1878-01-01 00:00:00,1937-12-01 00:00:00,Y,N
167,3892,OXFORD HOUSE A,MB,MANITOBA,MANITOBA,CAN,54.46,-95.16,CST,204.80,5062059,,,UNKNOWN,G,1.0,9.0,,,,,1985-10-01,1985-12-31,1985-01-01 00:00:00,1985-12-31 00:00:00,Y,N
168,3471,BRANDON A,MB,MANITOBA,MANITOBA,CAN,49.5436,-99.5707,CST,409.40,5010480,YBR,71140,FSS,A,1.0,1.0,,,,,1941-07-01,2012-12-05,1941-01-01 00:00:00,2012-12-06 12:00:00,N,Y
169,3807,KELWOOD,MB,MANITOBA,MANITOBA,CAN,50.37,-99.28,CST,352.00,5041425,,,DAILY CLIMATE,F,1.0,7.0,,,,,1959-04-01,1993-08-31,1959-01-01 00:00:00,1993-12-01 00:00:00,Y,N
170,3523,REGENT,MB,MANITOBA,MANITOBA,CAN,49.19,-100.22,CST,500.50,5012340,,,UNKNOWN,,1.0,9.0,,,,,1955-03-01,1966-10-31,1955-01-01 00:00:00,1966-12-01 00:00:00,Y,N
171,3533,RUSSELL,MB,MANITOBA,MANITOBA,CAN,50.46,-101.17,CST,567.00,5012520,,,UNKNOWN,D,1.0,5.0,,,,,1883-02-01,1990-10-31,1883-01-01 00:00:00,1990-12-01 00:00:00,Y,N
172,3733,FISHER BRANCH SOUTH,MB,MANITOBA,MANITOBA,CAN,51.031003,-97.3142,CST,259.10,5030917,,,DAILY CLIMATE,D,1.0,5.0,,,,,1977-07-01,2009-01-30,1977-01-01 00:00:00,2009-01-30 00:00:00,Y,N
173,3802,GYPSUMVILLE,MB,MANITOBA,MANITOBA,CAN,51.4,-98.44,CST,265.20,5041229,,,UNKNOWN,F,1.0,7.0,,,,,1966-01-01,1980-04-30,1966-01-01 00:00:00,1987-03-31 15:00:00,Y,N
174,3862,PASQUIA PROJECT,MB,MANITOBA,MANITOBA,CAN,53.43,-101.32,CST,262.10,5052060,,,DAILY CLIMATE,D,1.0,5.0,,,,,1956-06-01,2005-03-31,1956-01-01 00:00:00,2005-03-31 00:00:00,Y,N
175,3839,PLUMAS,MB,MANITOBA,MANITOBA,CAN,50.22,-99.05,CST,281.00,5042240,,,UNKNOWN,G,1.0,9.0,,,,,1951-07-01,1994-06-30,1951-01-01 00:00:00,1994-12-01 00:00:00,Y,N
176,3577,BIRDS HILL PINE RIDGE,MB,MANITOBA,MANITOBA,CAN,49.59,-96.56,CST,238.40,5020224,,,UNKNOWN,G,1.0,8.0,,,,,1988-05-01,1992-11-30,1988-01-01 00:00:00,1992-12-01 00:00:00,Y,N
177,3748,MOSS SPUR,MB,MANITOBA,MANITOBA,CAN,49.59,-96.08,CST,283.80,503196F,,,UNKNOWN,G,1.0,9.0,,,,,1978-06-01,1987-06-30,1978-01-01 00:00:00,1987-12-01 00:00:00,Y,N
178,3683,TURTLE MOUNTAIN 12,MB,MANITOBA,MANITOBA,CAN,49.06,-100.14,CST,669.00,5022947,,,UNKNOWN,G,1.0,8.0,,,,,1979-01-01,1985-05-31,1979-01-01 00:00:00,1985-12-01 00:00:00,Y,N
179,3629,MORRIS EXP ST,MB,MANITOBA,MANITOBA,CAN,49.22,-97.23,CST,235.60,5021960,,,UNKNOWN,,1.0,9.0,,,,,1954-01-01,1959-12-31,1954-01-01 00:00:00,1959-12-31 00:00:00,Y,N
180,3766,COWAN,MB,MANITOBA,MANITOBA,CAN,52.02,-100.39,CST,365.80,5040FJ3,,,DAILY CLIMATE,D,1.0,5.0,CCN,RCSC,Co-operative Climate Network,Réseau coopératif de stations climatiques,1984-06-01,2021-04-29,1984-01-01 00:00:00,2021-04-29 00:00:00,Y,Y
181,11003,OAKVILLE,MB,MANITOBA,MANITOBA,CAN,49.54,-98.02,CST,249.90,5022055,,,UNKNOWN,G,1.0,9.0,,,,,1993-12-01,1995-10-31,1993-12-01 00:00:00,1995-10-31 00:00:00,Y,N
182,3896,PORT NELSON,MB,MANITOBA,MANITOBA,CAN,57.0,-92.51,CST,14.90,5062327,,,UNKNOWN,,1.0,9.0,,,,,1915-05-01,1934-07-31,1915-01-01 00:00:00,1934-07-31 00:00:00,Y,N
183,3804,GYPSUMVILLE EAST,MB,MANITOBA,MANITOBA,CAN,51.44,-98.32,CST,246.90,5041233,,,UNKNOWN,G,1.0,9.0,,,,,1982-06-01,1982-09-30,1982-01-01 00:00:00,1982-12-01 00:00:00,Y,N
184,3814,LENSWOOD EXP ST,MB,MANITOBA,MANITOBA,CAN,52.32,-101.0,CST,304.80,5041560,,,UNKNOWN,,1.0,9.0,,,,,1951-01-01,1958-12-31,1951-01-01 00:00:00,1958-12-31 00:00:00,Y,N
185,3530,ROBLIN NORTH,MB,MANITOBA,MANITOBA,CAN,51.22,-101.24,CST,587.00,5012473,,,UNKNOWN,G,1.0,8.0,,,,,1980-06-01,1986-05-31,1980-01-01 00:00:00,1986-12-01 00:00:00,Y,N
186,27867,GIMLI HARBOUR CS,MB,MANITOBA,MANITOBA,CAN,50.3752,-96.5856,CST,217.00,5031041,XGH,71577,AU8,G,1.0,8.0,ECCC - MSC,ECCC - SMC,Environment and Climate Change Canada - Meteorological Service of Canada,Environnement et Changement climatique Canada - Service météorologique du Canada,1999-07-20,2021-04-30,1999-07-20 00:00:00,2021-04-30 12:30:37,Y,N
187,3851,TOBARMORE,MB,MANITOBA,MANITOBA,CAN,50.28,-99.27,CST,367.50,5042927,,,UNKNOWN,G,1.0,9.0,,,,,1986-06-01,1986-09-30,1986-01-01 00:00:00,1986-12-01 00:00:00,Y,N
188,3706,WINNIPEG STP,MB,MANITOBA,MANITOBA,CAN,49.57,-97.06,CST,232.60,5023261,,,UNKNOWN,F,1.0,7.0,,,,,1960-06-01,1989-12-31,1960-01-01 00:00:00,1989-12-31 00:00:00,Y,N
189,32210,FORT WHYTE CENTRE,MB,MANITOBA,MANITOBA,CAN,49.49,-97.133,CST,235.00,5020990,,,DAILY CLIMATE,,,,,,,,2002-11-01,2004-05-01,2002-11-01 00:00:00,2004-05-01 00:00:00,Y,N
190,3842,RORKETON WEST,MB,MANITOBA,MANITOBA,CAN,51.26,-99.44,CST,266.40,5042485,,,DAILY CLIMATE,E,1.0,6.0,,,,,1982-07-01,2003-11-30,1982-01-01 00:00:00,2003-11-30 00:00:00,Y,N
191,3646,PIGEON LAKE,MB,MANITOBA,MANITOBA,CAN,49.57,-97.36,CST,237.70,5022100,,,DAILY CLIMATE,F,1.0,7.0,,,,,1988-05-01,1998-12-31,1988-01-01 00:00:00,1998-12-31 00:00:00,Y,N
192,3498,HARGRAVE CDA EPF,MB,MANITOBA,MANITOBA,CAN,49.55,-101.06,CST,487.70,5011280,,,UNKNOWN,,1.0,9.0,,,,,1951-01-01,1970-02-28,1951-01-01 00:00:00,1970-12-01 00:00:00,Y,N
193,3633,NAROL,MB,MANITOBA,MANITOBA,CAN,50.03,-96.58,CST,230.70,5021992,,,DAILY CLIMATE,F,1.0,7.0,,,,,1971-09-01,1997-10-31,1971-01-01 00:00:00,1997-10-31 00:00:00,Y,N
194,3810,LAKE DAUPHIN,MB,MANITOBA,MANITOBA,CAN,51.12,-99.33,CST,263.70,5041523,,,UNKNOWN,G,1.0,8.0,,,,,1984-10-01,1989-10-31,1984-01-01 00:00:00,1989-12-01 00:00:00,Y,N
195,3893,PICKEREL NARROWS,MB,MANITOBA,MANITOBA,CAN,56.13,-100.35,CST,265.20,5062075,,,UNKNOWN,F,1.0,7.0,,,,,1963-06-01,1978-03-31,1963-01-01 00:00:00,1978-12-01 00:00:00,Y,N
196,6950,NAPINKA,MB,MANITOBA,MANITOBA,CAN,49.2,-100.51,CST,434.60,5011990,,,UNKNOWN,G,1.0,9.0,,,,,1991-05-01,1992-03-31,1991-01-01 00:00:00,1992-12-01 00:00:00,Y,N
197,48588,LYNN LAKE,MB,MANITOBA,MANITOBA,CAN,56.515,-101.0434,CST,356.60,5061645,YYL,71078,NCA,,,,NAVCAN,NAVCAN,NAV Canada,NAV Canada,2010-04-08,2021-04-30,2010-04-06 08:00:00,2021-04-30 12:30:37,Y,N
198,44244,CHURCHILL CLIMATE,MB,MANITOBA,MANITOBA,CAN,58.44,-94.04,CST,28.50,5060608,PYQ,71696,AU8,,,,ECCC - MSC,ECCC - SMC,Environment and Climate Change Canada - Meteorological Service of Canada,Environnement et Changement climatique Canada - Service météorologique du Canada,2005-10-01,2021-04-30,2005-09-27 17:00:00,2021-04-30 12:30:37,Y,N
199,3622,MIAMI ORCHARD,MB,MANITOBA,MANITOBA,CAN,49.22,-98.17,CST,329.80,5021736,,,DAILY CLIMATE,A,1.0,2.0,,,,,1964-08-01,2010-12-11,1964-01-01 00:00:00,2010-12-11 00:00:00,Y,Y
200,3825,MOOSEHORN,MB,MANITOBA,MANITOBA,CAN,51.17,-98.24,CST,269.10,5041801,,,UNKNOWN,G,1.0,8.0,,,,,1982-06-01,1984-07-31,1982-01-01 00:00:00,1984-12-01 00:00:00,Y,N
201,3590,DOMAIN,MB,MANITOBA,MANITOBA,CAN,49.37,-97.19,CST,237.70,5020768,,,UNKNOWN,F,1.0,7.0,,,,,1979-08-01,1988-07-31,1979-01-01 00:00:00,1988-12-01 00:00:00,Y,N
202,3866,WANLESS,MB,MANITOBA,MANITOBA,CAN,54.11,-101.22,CST,271.30,5053080,,,,F,1.0,7.0,,,,,1935-09-01,1995-12-31,1935-01-01 00:00:00,1995-12-31 00:00:00,Y,N
203,3596,FANNYSTELLE,MB,MANITOBA,MANITOBA,CAN,49.48,-97.52,CST,243.80,5020913,,,DAILY CLIMATE,A,1.0,2.0,,,,,1969-05-01,2004-09-30,1969-01-01 00:00:00,2004-09-30 00:00:00,Y,N
204,3743,HNAUSA,MB,MANITOBA,MANITOBA,CAN,50.56,-97.0,CST,225.20,5031298,,,UNKNOWN,G,1.0,8.0,,,,,1973-09-01,1976-04-30,1973-01-01 00:00:00,1976-12-01 00:00:00,Y,N
205,3760,SEVEN SISTERS OYES,MB,MANITOBA,MANITOBA,CAN,50.06,-95.56,CST,274.30,5032641,,,UNKNOWN,G,1.0,9.0,,,,,1980-06-01,1980-09-30,1980-01-01 00:00:00,1980-12-01 00:00:00,Y,N
206,3857,FLIN FLON,MB,MANITOBA,MANITOBA,CAN,54.46,-101.53,CST,320.00,5050920,,,DAILY CLIMATE,A,1.0,1.0,CCN,RCSC,Co-operative Climate Network,Réseau coopératif de stations climatiques,1927-01-01,2021-04-08,1927-01-01 00:00:00,2021-04-08 00:00:00,Y,Y
207,3850,SWAN RIVER 2,MB,MANITOBA,MANITOBA,CAN,51.59,-101.11,CST,411.50,5042805,,,DAILY CLIMATE,A,1.0,2.0,,,,,1967-09-01,1998-01-31,1967-01-01 00:00:00,1998-01-31 00:00:00,Y,N
208,3554,TURTLE MOUNTAIN 3,MB,MANITOBA,MANITOBA,CAN,49.11,-100.42,CST,472.40,5012938,,,UNKNOWN,E,1.0,6.0,,,,,1978-11-01,1992-05-31,1978-01-01 00:00:00,1992-12-01 00:00:00,Y,N
209,3538,SHARPE LAKE,MB,MANITOBA,MANITOBA,CAN,49.03,-100.2,CST,656.80,5012661,,,UNKNOWN,G,1.0,9.0,,,,,1988-05-01,1988-08-31,1988-01-01 00:00:00,1988-12-01 00:00:00,Y,N
210,3794,GILBERT PLAINS 2,MB,MANITOBA,MANITOBA,CAN,51.1,-100.29,CST,388.90,5040986,,,UNKNOWN,G,1.0,9.0,,,,,1980-03-01,1982-02-28,1980-01-01 00:00:00,1982-12-01 00:00:00,Y,N
211,3882,KETTLE GS,MB,MANITOBA,MANITOBA,CAN,56.23,-94.39,CST,145.40,5061460,,,UNKNOWN,G,1.0,8.0,,,,,1966-10-01,1973-10-31,1966-01-01 00:00:00,1973-12-01 00:00:00,Y,N
212,3876,DENBEIGH POINT,MB,MANITOBA,MANITOBA,CAN,55.24,-99.47,CST,256.00,5060766,,,UNKNOWN,G,1.0,9.0,,,,,1990-02-01,1990-02-28,1990-01-01 00:00:00,1990-12-01 00:00:00,Y,N
213,3902,SOUTH BAY,MB,MANITOBA,MANITOBA,CAN,56.4,-99.0,CST,282.90,5062730,,,UNKNOWN,G,1.0,8.0,,,,,1973-10-01,1976-10-31,1973-01-01 00:00:00,1976-12-01 00:00:00,Y,N
214,3845,ST LAURENT,MB,MANITOBA,MANITOBA,CAN,50.25,-97.38,CST,266.70,5042596,,,UNKNOWN,G,1.0,9.0,,,,,1980-11-01,1982-04-30,1980-11-01 00:00:00,1982-12-01 00:00:00,Y,N
215,3472,BRANDON CDA,MB,MANITOBA,MANITOBA,CAN,49.52,-99.59,CST,362.70,5010485,,,UNKNOWN,A,1.0,1.0,,,,,1890-01-01,2010-03-10,1890-01-01 00:00:00,2010-03-10 00:00:00,N,Y
216,48728,LYNN LAKE RCS,MB,MANITOBA,MANITOBA,CAN,56.510042,-101.0400005,CST,354.20,5061649,PLE,71632,AU8,,,,ECCC - MSC,ECCC - SMC,Environment and Climate Change Canada - Meteorological Service of Canada,Environnement et Changement climatique Canada - Service météorologique du Canada,2010-06-28,2021-04-30,2010-06-28 00:00:00,2021-04-30 12:30:37,Y,N
217,3849,SWAN RIVER,MB,MANITOBA,MANITOBA,CAN,52.03,-101.13,CST,346.60,5042800,,,DAILY CLIMATE,A,1.0,1.0,,,,,1904-07-01,2008-09-30,1904-01-01 00:00:00,2008-09-30 00:00:00,Y,Y
218,3494,GRISWOLD,MB,MANITOBA,MANITOBA,CAN,49.49,-100.28,CST,403.90,5011224,,,UNKNOWN,G,1.0,8.0,,,,,1979-08-01,1981-01-31,1979-01-01 00:00:00,1981-12-01 00:00:00,Y,N
219,3901,SNOW LAKE,MB,MANITOBA,MANITOBA,CAN,54.53,-100.02,CST,295.70,5062706,,,DAILY CLIMATE,F,1.0,7.0,,,,,1983-02-01,1998-06-30,1983-01-01 00:00:00,1998-06-30 00:00:00,Y,N
220,3543,SILVERTON EXP ST,MB,MANITOBA,MANITOBA,CAN,50.46,-101.09,CST,571.80,5012680,,,UNKNOWN,,1.0,9.0,,,,,1951-01-01,1958-09-30,1951-01-01 00:00:00,1958-12-01 00:00:00,Y,N
221,31169,WABOWDEN 2,MB,MANITOBA,MANITOBA,CAN,54.55388,-98.39375,CST,231.60,5063044,,,DAILY CLIMATE,,1.0,9.0,,,,,2001-07-01,2008-08-09,2001-07-01 00:00:00,2008-08-09 00:00:00,Y,N
222,3594,ELM CREEK,MB,MANITOBA,MANITOBA,CAN,49.43,-98.01,CST,252.40,5020870,,,DAILY CLIMATE,D,1.0,5.0,,,,,1964-04-01,1993-12-31,1964-01-01 00:00:00,1993-12-31 00:00:00,Y,N
223,7290,GRAND RAPIDS (AUT),MB,MANITOBA,MANITOBA,CAN,53.1111064,-99.1604098,CST,222.50,5031A10,WJD,71858,AU8,G,1.0,8.0,ECCC - MSC,ECCC - SMC,Environment and Climate Change Canada - Meteorological Service of Canada,Environnement et Changement climatique Canada - Service météorologique du Canada,1992-12-03,2021-04-30,1992-12-03 00:00:00,2021-04-30 12:30:37,Y,N
224,54278,ISLAND LAKE A,MB,MANITOBA,MANITOBA,CAN,53.5126,-94.3913,CST,235.30,5061374,YIV,,NCA,,,,NAVCAN,NAVCAN,NAV Canada,NAV Canada,2018-10-29,2021-04-30,2016-01-13 08:00:00,2021-04-30 12:30:37,Y,N
225,3808,KENVILLE EXP ST,MB,MANITOBA,MANITOBA,CAN,52.0,-101.19,CST,387.40,5041440,,,UNKNOWN,,1.0,9.0,,,,,1951-01-01,1960-05-31,1951-01-01 00:00:00,1960-12-01 00:00:00,Y,N
226,29886,DEERWOOD RCS,MB,MANITOBA,MANITOBA,CAN,49.23594,-98.19093,CST,341.40,5020725,XDW,71840,AU8,G,1.0,9.0,ECCC - MSC,ECCC - SMC,Environment and Climate Change Canada - Meteorological Service of Canada,Environnement et Changement climatique Canada - Service météorologique du Canada,2000-01-01,2021-04-30,2000-01-01 00:00:00,2021-04-30 12:30:37,Y,N
227,10884,PORTAGE SOUTHPORT,MB,MANITOBA,MANITOBA,CAN,49.54113,-98.17029,CST,272.70,5012324,WPG,71851,AU8,G,1.0,8.0,ECCC - MSC,ECCC - SMC,Environment and Climate Change Canada - Meteorological Service of Canada,Environnement et Changement climatique Canada - Service météorologique du Canada,1992-12-01,2021-04-30,1992-12-01 00:00:00,2021-04-30 12:30:37,Y,N
228,3831,NEEPAWA MURRAY 6 SOUTHWEST,MB,MANITOBA,MANITOBA,CAN,50.09,-99.34,CST,411.50,5042004,,,DAILY CLIMATE,E,1.0,6.0,,,,,1986-07-01,2008-10-30,1986-01-01 00:00:00,2008-10-30 00:00:00,Y,N
229,3707,WINNIPEG TRANSCONA,MB,MANITOBA,MANITOBA,CAN,49.55,-97.01,CST,235.00,5023263,,,UNKNOWN,,1.0,9.0,,,,,1967-07-01,1968-11-30,1967-01-01 00:00:00,1968-12-01 00:00:00,Y,N
230,3827,MOUNTAIN GAP,MB,MANITOBA,MANITOBA,CAN,51.08,-100.45,CST,460.20,5041970,,,UNKNOWN,G,1.0,9.0,,,,,1977-07-01,1977-08-31,1977-01-01 00:00:00,1977-12-01 00:00:00,Y,N
231,3767,ASHERN NORTHWEST,MB,MANITOBA,MANITOBA,CAN,51.12,-98.23,CST,266.70,5040JK0,,,DAILY CLIMATE,F,1.0,7.0,,,,,1989-10-01,2001-02-28,1989-01-01 00:00:00,2001-02-28 00:00:00,Y,N
232,3563,WASKADA,MB,MANITOBA,MANITOBA,CAN,49.06,-100.48,CST,470.90,5013119,,,UNKNOWN,G,1.0,9.0,,,,,1986-01-01,1989-04-30,1986-01-01 00:00:00,1989-04-30 00:00:00,Y,N
233,29793,LITTLE BEAVER RIVER,MB,MANITOBA,MANITOBA,CAN,57.39,-95.4,CST,245.00,5061575,,,AU7,G,1.0,9.0,,,,,2000-02-01,2004-10-31,2000-02-01 00:00:00,2004-10-31 00:00:00,Y,N
234,3762,HILBRE SOUTH,MB,MANITOBA,MANITOBA,CAN,51.28,-98.34,CST,249.90,504AB92,,,UNKNOWN,G,1.0,8.0,,,,,1982-06-01,1983-08-31,1982-01-01 00:00:00,1983-12-01 00:00:00,Y,N
235,3561,VIRDEN SCARTH,MB,MANITOBA,MANITOBA,CAN,49.44,-100.58,CST,442.00,5012965,,,UNKNOWN,F,1.0,7.0,,,,,1961-06-01,1976-08-31,1961-01-01 00:00:00,1976-12-01 00:00:00,Y,N
236,3513,OAKNER,MB,MANITOBA,MANITOBA,CAN,50.06,-100.38,CST,502.90,5012054,,,DAILY CLIMATE,A,1.0,1.0,,,,,1962-06-01,2007-11-30,1962-01-01 00:00:00,2007-11-30 00:00:00,N,Y
237,3484,DELORAINE 6 SE,MB,MANITOBA,MANITOBA,CAN,49.09,-100.22,CST,548.60,5010762,,,UNKNOWN,G,1.0,8.0,,,,,1976-11-01,1977-11-30,1976-01-01 00:00:00,1977-12-01 00:00:00,Y,N
238,3795,HILBRE,MB,MANITOBA,MANITOBA,CAN,51.3,-98.36,CST,251.50,5041B9B,,,UNKNOWN,G,1.0,9.0,,,,,1982-06-01,1983-11-30,1982-01-01 00:00:00,1983-12-01 00:00:00,Y,N
239,6894,BASSWOOD,MB,MANITOBA,MANITOBA,CAN,50.15,-100.02,CST,582.80,5040146,,,DAILY CLIMATE,G,1.0,8.0,,,,,1992-10-01,1996-08-31,1992-01-01 00:00:00,1996-08-31 00:00:00,Y,N
240,3659,ST ANDREWS A,MB,MANITOBA,MANITOBA,CAN,50.03,-97.02,CST,231.60,50225DP,,,ATO,F,1.0,7.0,,,,,1976-03-01,1985-08-31,1976-01-01 00:00:00,1985-12-01 00:00:00,Y,N
241,3507,MEDORA,MB,MANITOBA,MANITOBA,CAN,49.15,-100.42,CST,458.10,5011715,,,UNKNOWN,,1.0,9.0,,,,,1965-08-01,1968-11-30,1965-01-01 00:00:00,1968-12-01 00:00:00,Y,N
242,3811,LAKELAND,MB,MANITOBA,MANITOBA,CAN,50.16,-98.4,CST,256.00,5041525,,,UNKNOWN,G,1.0,8.0,,,,,1970-07-01,1975-06-30,1970-01-01 00:00:00,1975-12-01 00:00:00,Y,N
243,3703,WINNIPEG ST JOHNS COLL,MB,MANITOBA,MANITOBA,CAN,49.53,-97.07,CST,231.60,5023243,,,UNKNOWN,,1.0,9.0,,,,,1872-03-01,1938-07-31,1872-01-01 00:00:00,1938-12-01 00:00:00,Y,N
244,27170,WINNIPEG PACIFIC AVENUE,MB,MANITOBA,MANITOBA,CAN,49.55,-97.1,CST,234.70,502I002,,,DAILY CLIMATE,G,1.0,8.0,,,,,1996-03-01,1999-02-28,1996-03-01 00:00:00,1999-02-28 00:00:00,Y,N
245,3770,AMARANTH,MB,MANITOBA,MANITOBA,CAN,50.38,-98.43,CST,259.10,5040060,,,DAILY CLIMATE,E,1.0,6.0,,,,,1980-10-01,2004-12-31,1980-01-01 00:00:00,2004-12-31 00:00:00,Y,N
246,3542,SHOAL LAKE,MB,MANITOBA,MANITOBA,CAN,50.27,-100.35,CST,555.30,5012677,,,UNKNOWN,F,1.0,7.0,,,,,1978-05-01,1983-10-31,1978-01-01 00:00:00,1983-12-01 00:00:00,Y,N
247,3616,MARCHAND,MB,MANITOBA,MANITOBA,CAN,49.27,-96.23,CST,304.80,5021689,,,UNKNOWN,G,1.0,8.0,,,,,1972-06-01,1985-01-31,1972-01-01 00:00:00,1985-01-31 00:00:00,Y,N
248,3549,TREHERNE,MB,MANITOBA,MANITOBA,CAN,49.38,-98.42,CST,373.40,5012930,,,UNKNOWN,G,1.0,8.0,,,,,1885-04-01,1978-07-31,1885-01-01 00:00:00,1978-12-01 00:00:00,Y,N
249,6896,LEAF RAPIDS,MB,MANITOBA,MANITOBA,CAN,56.28,-100.01,CST,282.00,5061550,,,,G,1.0,8.0,,,,,1991-10-01,1996-03-31,1991-01-01 00:00:00,1996-03-31 00:00:00,Y,N
250,3613,LETELLIER,MB,MANITOBA,MANITOBA,CAN,49.08,-97.18,CST,240.20,5021565,,,UNKNOWN,G,1.0,8.0,,,,,1967-05-01,1974-06-30,1967-01-01 00:00:00,1974-12-01 00:00:00,Y,N
251,3887,LYNN LAKE A,MB,MANITOBA,MANITOBA,CAN,56.515,-101.0434,CST,356.60,5061646,,,,A,1.0,1.0,,,,,1968-08-01,2005-09-30,1959-05-01 09:00:00,2005-09-30 00:00:00,Y,Y
252,3611,KILLARNEY,MB,MANITOBA,MANITOBA,CAN,49.11,-99.39,CST,495.60,5021480,,,DAILY CLIMATE,F,1.0,7.0,,,,,1969-11-01,2008-01-31,1969-01-01 00:00:00,2008-01-31 00:00:00,Y,N
253,54279,THE PAS A,MB,MANITOBA,MANITOBA,CAN,53.5817,-101.0528,CST,270.60,5052882,YQD,71867,NCA,,,,NAVCAN,NAVCAN,NAV Canada,NAV Canada,2018-10-29,2021-04-30,2016-01-13 08:00:00,2021-04-30 12:30:37,Y,N
254,47408,CHURCHILL AWOS,MB,MANITOBA,MANITOBA,CAN,58.4414,-94.0326,CST,28.70,5060601,,,AU5,,,,,,,,2008-07-03,2010-11-18,2008-07-03 00:00:00,2010-11-18 12:00:00,Y,N
255,3704,WINNIPEG SHERBROOK ST,MB,MANITOBA,MANITOBA,CAN,49.53,-97.09,CST,232.90,5023250,,,UNKNOWN,,1.0,9.0,,,,,1955-04-01,1963-11-30,1955-01-01 00:00:00,1963-12-01 00:00:00,Y,N
256,3615,MANITOU,MB,MANITOBA,MANITOBA,CAN,49.16,-98.29,CST,487.70,5021688,,,UNKNOWN,E,1.0,6.0,,,,,1970-05-01,1981-07-31,1970-01-01 00:00:00,1981-12-01 00:00:00,Y,N
257,3820,MAFEKING,MB,MANITOBA,MANITOBA,CAN,52.395903,-101.055202,CST,325.00,5041685,,,DAILY CLIMATE,F,1.0,7.0,CCN,RCSC,Co-operative Climate Network,Réseau coopératif de stations climatiques,1983-12-01,2021-04-20,1983-01-01 00:00:00,2021-04-20 00:00:00,Y,N
258,3699,WINNIPEG PERTH,MB,MANITOBA,MANITOBA,CAN,49.55,-97.08,CST,234.10,5023228,,,UNKNOWN,,1.0,9.0,,,,,1960-08-01,1960-10-31,1960-01-01 00:00:00,1960-12-01 00:00:00,Y,N
259,3593,DUGALD,MB,MANITOBA,MANITOBA,CAN,49.52,-96.49,CST,243.20,5020810,,,UNKNOWN,E,1.0,6.0,,,,,1962-06-01,1988-03-31,1962-01-01 00:00:00,1988-12-01 00:00:00,Y,N
260,47407,WINNIPEG RICHARDSON AWOS,MB,MANITOBA,MANITOBA,CAN,49.55,-97.14,CST,238.70,5023226,YWG,71852,AU5,,,,,,,,2008-07-03,2013-10-03,2008-07-03 00:00:00,2013-10-03 00:00:00,Y,N
261,3491,FOXWARREN,MB,MANITOBA,MANITOBA,CAN,50.31,-101.09,CST,533.40,5010981,,,DAILY CLIMATE,C,1.0,4.0,,,,,1969-07-01,2001-09-30,1969-01-01 00:00:00,2001-09-30 00:00:00,Y,N
262,3680,TEULON,MB,MANITOBA,MANITOBA,CAN,50.25,-97.15,CST,266.70,5022855,,,UNKNOWN,G,1.0,8.0,,,,,1970-06-01,1974-11-30,1970-01-01 00:00:00,1974-12-01 00:00:00,Y,N
263,3509,MINNEDOSA,MB,MANITOBA,MANITOBA,CAN,50.16,-99.5,CST,521.20,5011760,,,DAILY CLIMATE,A,1.0,1.0,,,,,1880-12-01,1999-06-30,1880-12-01 00:00:00,1999-06-30 00:00:00,Y,N
264,3511,NORQUAY,MB,MANITOBA,MANITOBA,CAN,49.29,-98.45,CST,457.20,5012046,,,UNKNOWN,,1.0,9.0,,,,,1883-02-01,1913-09-30,1883-01-01 00:00:00,1913-12-01 00:00:00,Y,N
265,3480,CARROLL,MB,MANITOBA,MANITOBA,CAN,49.33,-100.0,CST,487.70,5010554,,,UNKNOWN,E,1.0,6.0,,,,,1969-11-01,1984-07-31,1969-01-01 00:00:00,1984-12-01 00:00:00,Y,N
266,3610,HOMEWOOD,MB,MANITOBA,MANITOBA,CAN,49.32,-97.52,CST,251.50,5021306,,,UNKNOWN,,1.0,9.0,,,,,1962-05-01,1965-07-31,1962-01-01 00:00:00,1965-12-01 00:00:00,Y,N
267,3540,SHOAL LAKE,MB,MANITOBA,MANITOBA,CAN,50.26,-100.35,CST,543.50,5012675,,,UNKNOWN,,1.0,9.0,,,,,1883-09-01,1900-02-28,1883-01-01 00:00:00,1900-12-01 00:00:00,Y,N
268,3531,ROSSBURN,MB,MANITOBA,MANITOBA,CAN,50.4,-100.49,CST,590.10,5012500,,,UNKNOWN,E,1.0,6.0,,,,,1955-06-01,1990-11-30,1955-01-01 00:00:00,1990-12-01 00:00:00,Y,N
269,49909,BRANDON RCS,MB,MANITOBA,MANITOBA,CAN,49.54,-99.57,CST,409.40,5010490,PBO,71136,AU8,,,,ECCC - MSC,ECCC - SMC,Environment and Climate Change Canada - Meteorological Service of Canada,Environnement et Changement climatique Canada - Service météorologique du Canada,2012-01-09,2021-04-30,2012-01-09 00:00:00,2021-04-30 12:30:37,Y,N
270,3738,GIMLI WRB,MB,MANITOBA,MANITOBA,CAN,50.37,-97.02,CST,221.00,5031043,,,UNKNOWN,,1.0,9.0,,,,,1964-08-01,1964-10-31,1964-01-01 00:00:00,1964-12-01 00:00:00,Y,N
271,27611,FOXWARREN NORTH,MB,MANITOBA,MANITOBA,CAN,50.36,-101.1,CST,556.30,5010982,,,DAILY CLIMATE,G,1.0,9.0,,,,,1998-07-01,2001-07-31,1998-07-01 00:00:00,2001-07-31 00:00:00,Y,N
272,3772,ASHVILLE,MB,MANITOBA,MANITOBA,CAN,51.17,-100.17,CST,320.00,5040121,,,UNKNOWN,F,1.0,7.0,,,,,1973-07-01,1979-10-31,1973-01-01 00:00:00,1979-12-01 00:00:00,Y,N
273,43186,WINNIPEG GRACE HOSPITAL,MB,MANITOBA,MANITOBA,CAN,49.5255,-97.1641,CST,241.00,5023281,,,DAILY CLIMATE,,,,,,,,2004-11-01,2006-01-31,2004-11-01 00:00:00,2006-01-31 00:00:00,Y,N
274,10745,CHURCHILL UA,MB,MANITOBA,MANITOBA,CAN,58.44,-94.04,CST,28.50,5060606,,71913,CON,,,,,,,,2000-05-01,2015-12-15,2000-05-01 00:00:00,2015-12-15 00:00:00,Y,N
275,3799,GRANDVIEW,MB,MANITOBA,MANITOBA,CAN,51.07,-100.42,CST,442.00,5041116,,,DAILY CLIMATE,G,1.0,9.0,,,,,1977-07-01,2003-09-30,1977-01-01 00:00:00,2003-09-30 00:00:00,Y,N
276,3602,GRAYSVILLE,MB,MANITOBA,MANITOBA,CAN,49.3,-98.1,CST,283.50,5021160,,,UNKNOWN,D,1.0,5.0,,,,,1925-08-01,1988-10-31,1925-01-01 00:00:00,1988-12-01 00:00:00,Y,N
277,29555,WASKWATIM LAKE,MB,MANITOBA,MANITOBA,CAN,55.33,-98.36,CST,260.00,5063121,,,AU7,G,1.0,8.0,,,,,1999-12-01,2007-11-30,1999-12-01 00:00:00,2007-11-30 00:00:00,Y,N
278,3555,TURTLE MOUNTAIN 4,MB,MANITOBA,MANITOBA,CAN,49.19,-100.44,CST,442.00,5012939,,,UNKNOWN,F,1.0,7.0,,,,,1978-11-01,1986-11-30,1978-01-01 00:00:00,1986-12-01 00:00:00,Y,N
279,3624,MOOSE LAKE,MB,MANITOBA,MANITOBA,CAN,49.12,-95.19,CST,344.40,5021812,,,UNKNOWN,G,1.0,9.0,,,,,1981-09-01,1983-10-31,1981-01-01 00:00:00,1983-12-01 00:00:00,Y,N
280,3784,DELTA WATERFOWL RS,MB,MANITOBA,MANITOBA,CAN,50.11,-98.18,CST,247.50,5040765,,,UNKNOWN,G,1.0,8.0,,,,,1965-04-01,1975-01-31,1965-01-01 00:00:00,1975-12-01 00:00:00,Y,N
281,50897,KLEEFELD (MAFRI),MB,MANITOBA,MANITOBA,CAN,49.3104,-96.5404,CST,246.50,5021500,PTG,71646,AU8,,,,ECCC - MSC,ECCC - SMC,Environment and Climate Change Canada - Meteorological Service of Canada,Environnement et Changement climatique Canada - Service météorologique du Canada,2014-09-17,2021-04-30,2012-12-20 15:00:00,2021-04-30 12:30:37,Y,N
282,3585,CRYSTAL CITY,MB,MANITOBA,MANITOBA,CAN,49.03,-98.58,CST,464.80,5020625,,,,F,1.0,7.0,,,,,1987-09-01,1996-10-31,1987-01-01 00:00:00,1996-10-31 00:00:00,Y,N
283,3515,PIPESTONE,MB,MANITOBA,MANITOBA,CAN,49.32,-100.55,CST,437.40,5012200,,,UNKNOWN,G,1.0,9.0,,,,,1899-02-01,1985-06-30,1899-01-01 00:00:00,1985-12-01 00:00:00,Y,N
284,3673,SPRAGUE,MB,MANITOBA,MANITOBA,CAN,49.01,-95.36,CST,329.20,5022760,,,DAILY CLIMATE,A,1.0,1.0,,,,,1915-09-01,1998-03-31,1915-01-01 00:00:00,1998-03-31 00:00:00,Y,N
285,3843,RUSSELL BARNARDO,MB,MANITOBA,MANITOBA,CAN,50.59,-101.2,CST,557.80,5042522,,,UNKNOWN,,1.0,9.0,,,,,1895-08-01,1906-06-30,1895-01-01 00:00:00,1906-12-01 00:00:00,Y,N
286,3775,BEAVER,MB,MANITOBA,MANITOBA,CAN,50.03,-98.42,CST,268.20,5040166,,,DAILY CLIMATE,A,1.0,2.0,CCN,RCSC,Co-operative Climate Network,Réseau coopératif de stations climatiques,1973-05-01,2021-03-29,1973-01-01 00:00:00,2021-03-29 00:00:00,Y,Y
287,3589,DEERWOOD,MB,MANITOBA,MANITOBA,CAN,49.24,-98.19,CST,338.30,5020720,,,,D,1.0,5.0,,,,,1951-11-01,1995-04-30,1951-01-01 00:00:00,1995-04-30 00:00:00,Y,N
288,3787,ERIKSDALE,MB,MANITOBA,MANITOBA,CAN,50.5,-98.14,CST,259.40,5040895,,,UNKNOWN,F,1.0,7.0,,,,,1959-08-01,1992-09-30,1959-01-01 00:00:00,1992-12-01 00:00:00,Y,N
289,3711,WINNIPEG W KILDONAN,MB,MANITOBA,MANITOBA,CAN,49.55,-97.08,CST,,5023280,,,UNKNOWN,,1.0,9.0,,,,,1955-04-01,1955-10-31,1955-01-01 00:00:00,1955-12-01 00:00:00,Y,N
290,3463,BALDUR,MB,MANITOBA,MANITOBA,CAN,49.16349,-99.17325,CST,449.90,5010140,,,DAILY CLIMATE,A,1.0,1.0,CCN,RCSC,Co-operative Climate Network,Réseau coopératif de stations climatiques,1962-04-01,2021-04-22,1962-01-01 00:00:00,2021-04-22 00:00:00,Y,Y
291,6880,BALDUR 5 NORTHEAST,MB,MANITOBA,MANITOBA,CAN,49.25,-99.1,CST,425.30,5010143,,,,G,1.0,9.0,,,,,1991-05-01,1995-07-31,1991-01-01 00:00:00,1995-07-31 00:00:00,Y,N
292,3643,PEACE GARDENS,MB,MANITOBA,MANITOBA,CAN,49.0,-100.03,CST,693.40,5022065,,,DAILY CLIMATE,C,1.0,4.0,,,,,1961-09-01,2000-11-30,1961-01-01 00:00:00,2000-11-30 00:00:00,Y,N
293,3718,BEAUSEJOUR,MB,MANITOBA,MANITOBA,CAN,50.08,-96.13,CST,302.40,5030155,,,UNKNOWN,F,1.0,7.0,,,,,1960-03-01,1979-11-30,1959-11-02 00:00:00,1985-12-31 15:00:00,Y,N
294,3639,NINGA,MB,MANITOBA,MANITOBA,CAN,49.14,-99.51,CST,502.60,5022041,,,UNKNOWN,,1.0,9.0,,,,,1910-10-01,1921-10-31,1910-01-01 00:00:00,1921-12-01 00:00:00,Y,N
295,3720,BERENS RIVER,MB,MANITOBA,MANITOBA,CAN,52.21,-97.02,CST,217.30,5030200,,,UNKNOWN,,1.0,9.0,,,,,1905-01-01,1964-12-31,1905-01-01 00:00:00,1964-12-31 00:00:00,Y,N
296,3459,OAK LAKE,MB,MANITOBA,MANITOBA,CAN,49.46,-100.38,CST,431.00,501K051,,,UNKNOWN,G,1.0,8.0,,,,,1979-05-01,1995-01-31,1979-01-01 00:00:00,1995-01-31 00:00:00,Y,N
297,3755,RENNIE,MB,MANITOBA,MANITOBA,CAN,49.51,-95.3159,CST,323.10,5032360,,,DAILY CLIMATE,F,1.0,7.0,CCN,RCSC,Co-operative Climate Network,Réseau coopératif de stations climatiques,1948-06-01,2021-04-29,1948-01-01 00:00:00,2021-04-29 00:00:00,Y,N
298,27230,WINNIPEG SOUTH,MB,MANITOBA,MANITOBA,CAN,49.47,-97.08,CST,232.00,502M001,,,DAILY CLIMATE,G,1.0,8.0,,,,,1996-11-01,2005-04-30,1996-11-01 00:00:00,2005-04-30 00:00:00,Y,N
299,29774,BURNTWOOD RIVER,MB,MANITOBA,MANITOBA,CAN,55.3,-99.13,CST,215.00,5060531,,,AU7,G,1.0,9.0,,,,,2000-03-01,2002-10-31,2000-03-01 00:00:00,2002-10-31 00:00:00,Y,N
300,3855,WINNIPEGOSIS SOUTH EAST,MB,MANITOBA,MANITOBA,CAN,51.36,-99.53,CST,257.60,5043226,,,DAILY CLIMATE,F,1.0,7.0,,,,,1982-07-01,1995-10-31,1982-01-01 00:00:00,1999-12-01 00:00:00,Y,N
301,3856,CRANBERRY PORTAGE,MB,MANITOBA,MANITOBA,CAN,54.37,-101.21,CST,306.00,5050620,,,UNKNOWN,,1.0,9.0,,,,,1957-10-01,1963-12-31,1957-01-01 00:00:00,1963-12-31 00:00:00,Y,N
302,3685,VITA,MB,MANITOBA,MANITOBA,CAN,49.05,-96.33,CST,304.80,5023001,,,UNKNOWN,G,1.0,8.0,,,,,1979-10-01,1983-12-31,1979-01-01 00:00:00,1983-12-31 00:00:00,Y,N
303,3535,ST ALPHONSE,MB,MANITOBA,MANITOBA,CAN,49.27,-99.01,CST,403.30,5012545,,,DAILY CLIMATE,E,1.0,6.0,,,,,1962-10-01,2016-06-12,1962-01-01 00:00:00,2016-06-12 00:00:00,Y,Y
304,3709,WINNIPEG U OF MANITOBA,MB,MANITOBA,MANITOBA,CAN,49.48,-97.08,CST,234.70,5023270,,,UNKNOWN,,1.0,9.0,,,,,1961-05-01,1968-12-31,1961-01-01 00:00:00,1968-12-31 00:00:00,Y,N
305,3504,LYLETON,MB,MANITOBA,MANITOBA,CAN,49.03,-101.11,CST,460.20,5011600,,,UNKNOWN,E,1.0,6.0,,,,,1951-01-01,1983-06-30,1951-01-01 00:00:00,1983-12-01 00:00:00,Y,N
306,3832,NEEPAWA WATER,MB,MANITOBA,MANITOBA,CAN,50.13,-99.28,CST,358.10,5042005,,,DAILY CLIMATE,A,1.0,1.0,,,,,1969-08-01,2008-03-31,1969-01-01 00:00:00,2008-03-31 00:00:00,N,Y
307,3681,TURTLE MOUNTAIN 10,MB,MANITOBA,MANITOBA,CAN,49.05,-99.56,CST,579.10,5022945,,,UNKNOWN,F,1.0,7.0,,,,,1978-11-01,1986-02-28,1978-01-01 00:00:00,1986-12-01 00:00:00,Y,N
308,3642,OTTERBURNE,MB,MANITOBA,MANITOBA,CAN,49.3,-97.03,CST,238.40,5022056,,,UNKNOWN,,1.0,9.0,,,,,1961-07-01,1969-07-31,1961-01-01 00:00:00,1969-12-01 00:00:00,Y,N
309,3888,MISSI FALLS,MB,MANITOBA,MANITOBA,CAN,57.19,-98.06,CST,266.70,5061766,,,UNKNOWN,G,1.0,8.0,,,,,1973-10-01,1976-08-31,1973-01-01 00:00:00,1976-12-01 00:00:00,Y,N
310,3712,WOODRIDGE,MB,MANITOBA,MANITOBA,CAN,49.17,-96.09,CST,381.00,5023295,,,UNKNOWN,G,1.0,9.0,,,,,1979-05-01,1981-09-30,1979-01-01 00:00:00,1981-12-01 00:00:00,Y,N
311,3600,GLENORA,MB,MANITOBA,MANITOBA,CAN,49.16,-99.11,CST,457.20,5021055,,,UNKNOWN,,1.0,9.0,,,,,1962-04-01,1966-12-31,1962-01-01 00:00:00,1966-12-31 00:00:00,Y,N
312,3495,HAMIOTA,MB,MANITOBA,MANITOBA,CAN,50.11,-100.37,CST,518.20,5011240,,,UNKNOWN,F,1.0,7.0,,,,,1914-11-01,1991-05-31,1914-01-01 00:00:00,1991-12-01 00:00:00,Y,N
313,3545,SOURIS,MB,MANITOBA,MANITOBA,CAN,49.39,-100.15,CST,432.80,5012719,,,DAILY CLIMATE,D,1.0,5.0,,,,,1982-07-01,2006-09-30,1982-01-01 00:00:00,2006-09-30 00:00:00,Y,Y
314,3539,SHILO,MB,MANITOBA,MANITOBA,CAN,49.4658,-99.3835,CST,375.20,5012672,WLO,71853,WSD,,1.0,9.0,,,,,1954-07-01,1970-06-30,1954-01-01 00:00:00,1999-05-04 09:00:00,Y,N
315,3705,WINNIPEG SHERBURN ST,MB,MANITOBA,MANITOBA,CAN,49.54,-97.11,CST,232.90,5023260,,,UNKNOWN,,1.0,9.0,,,,,1955-04-01,1957-08-31,1955-01-01 00:00:00,1957-12-01 00:00:00,Y,N
316,44083,NORWAY HOUSE,MB,MANITOBA,MANITOBA,CAN,53.58,-97.51,CST,223.70,5062045,,,AU5,,,,,,,,2005-06-01,2010-09-23,2005-06-01 00:00:00,2010-09-23 12:00:00,Y,N
317,3793,GILBERT PLAINS,MB,MANITOBA,MANITOBA,CAN,51.06,-100.28,CST,403.90,5040985,,,DAILY CLIMATE,B,1.0,3.0,,,,,1934-10-01,2016-06-13,1934-01-01 00:00:00,2016-06-13 00:00:00,Y,Y
318,3735,GEORGE ISLAND,MB,MANITOBA,MANITOBA,CAN,52.48,-97.38,CST,219.50,5030983,,,UNKNOWN,G,1.0,9.0,,,,,1965-10-01,1983-10-31,1965-10-01 00:00:00,1983-12-01 00:00:00,Y,N
319,3701,WINNIPEG ST BONIFACE WW,MB,MANITOBA,MANITOBA,CAN,49.53,-97.06,CST,232.00,5023233,,,UNKNOWN,F,1.0,7.0,,,,,1960-06-01,1981-07-31,1960-01-01 00:00:00,1981-12-01 00:00:00,Y,N
320,3460,ELKHORN 2 EAST,MB,MANITOBA,MANITOBA,CAN,49.55362,-101.12101,CST,497.50,5010QFQ,,,DAILY CLIMATE,F,1.0,7.0,CCN,RCSC,Co-operative Climate Network,Réseau coopératif de stations climatiques,1987-07-01,2021-04-25,1987-01-01 00:00:00,2021-04-25 00:00:00,Y,N
321,50148,CHURCHILL A,MB,MANITOBA,MANITOBA,CAN,58.4421,-94.0359,CST,29.30,5060605,YYQ,71618,NCH,,,,NAVCAN,NAVCAN,NAV Canada,NAV Canada,2018-10-30,2021-04-30,2012-04-10 09:00:00,2021-04-30 12:30:37,Y,N
322,3676,STONEWALL,MB,MANITOBA,MANITOBA,CAN,50.07,-97.2,CST,251.50,5022788,,,UNKNOWN,D,1.0,5.0,,,,,1959-12-01,1991-09-30,1959-01-01 00:00:00,1991-11-01 00:00:00,Y,N
323,3786,EDDYSTONE,MB,MANITOBA,MANITOBA,CAN,51.05,-99.09,CST,262.10,5040854,,,UNKNOWN,G,1.0,9.0,,,,,1971-09-01,1971-10-31,1971-01-01 00:00:00,1971-12-01 00:00:00,Y,N
324,3734,FRASERWOOD,MB,MANITOBA,MANITOBA,CAN,50.38,-97.13,CST,256.00,5030982,,,UNKNOWN,D,1.0,5.0,,,,,1969-09-01,1989-05-31,1969-01-01 00:00:00,1989-12-01 00:00:00,Y,N
325,3505,MACDONALD A,MB,MANITOBA,MANITOBA,CAN,50.05,-98.27,CST,254.50,5011680,,,UNKNOWN,,1.0,9.0,,,,,1951-07-01,1959-05-31,1951-01-01 00:00:00,1959-12-01 00:00:00,Y,N
326,30621,LA BROQUERIE,MB,MANITOBA,MANITOBA,CAN,49.2844,-96.3100027,CST,289.90,5031512,,,DAILY CLIMATE,G,1.0,9.0,,,,,2000-09-01,2004-05-31,2000-09-01 00:00:00,2004-05-31 00:00:00,Y,N
327,3499,HARTNEY,MB,MANITOBA,MANITOBA,CAN,49.27,-100.31,CST,442.00,5011282,,,UNKNOWN,G,1.0,9.0,,,,,1973-09-01,1973-10-31,1973-01-01 00:00:00,1973-12-01 00:00:00,Y,N
328,3578,BOISSEVAIN,MB,MANITOBA,MANITOBA,CAN,49.14,-100.03,CST,510.50,5020320,,,UNKNOWN,F,1.0,7.0,,,,,1912-04-01,1981-03-31,1912-01-01 00:00:00,1981-12-01 00:00:00,Y,N
329,29533,KELSEY DAM CS,MB,MANITOBA,MANITOBA,CAN,56.0215,-96.3035,CST,182.90,5061422,ZKD,71572,AU8,G,1.0,9.0,ECCC - MSC,ECCC - SMC,Environment and Climate Change Canada - Meteorological Service of Canada,Environnement et Changement climatique Canada - Service météorologique du Canada,2000-01-01,2021-04-30,2000-01-01 00:00:00,2021-04-30 12:30:37,Y,N
330,3782,DAUPHIN SOUTH,MB,MANITOBA,MANITOBA,CAN,51.01,-100.04,CST,374.90,5040687,,,UNKNOWN,G,1.0,8.0,,,,,1985-06-01,1987-03-31,1985-01-01 00:00:00,1987-12-01 00:00:00,Y,N
331,6892,GIMLI,MB,MANITOBA,MANITOBA,CAN,50.38,-97.01,CST,222.80,5031039,,,DAILY CLIMATE,F,1.0,7.0,,,,,1993-11-01,2008-03-31,1993-01-01 00:00:00,2008-03-31 00:00:00,Y,N
332,3482,DELORAINE,MB,MANITOBA,MANITOBA,CAN,49.11,-100.3,CST,500.50,5010760,,,,D,1.0,5.0,,,,,1897-05-01,1994-03-31,1897-05-01 00:00:00,1994-12-01 00:00:00,Y,N
333,3790,ETHELBERT,MB,MANITOBA,MANITOBA,CAN,51.32,-100.23,CST,343.00,5040899,,,DAILY CLIMATE,F,1.0,7.0,,,,,1983-12-01,2009-11-30,1983-01-01 00:00:00,2009-11-30 00:00:00,Y,N
334,3551,TURTLE MOUNTAIN,MB,MANITOBA,MANITOBA,CAN,49.11,-100.2,CST,655.30,5012935,,,UNKNOWN,,1.0,9.0,,,,,1883-06-01,1907-09-30,1883-01-01 00:00:00,1907-12-01 00:00:00,Y,N
335,27869,CLANWILLIAM,MB,MANITOBA,MANITOBA,CAN,50.2105,-99.485,CST,623.30,5010609,,,DAILY CLIMATE,G,1.0,8.0,,,,,1999-06-01,2001-10-31,1999-06-01 00:00:00,2001-10-31 00:00:00,Y,N
336,3816,LUNDAR 4SW,MB,MANITOBA,MANITOBA,CAN,50.39,-98.06,CST,251.50,5041588,,,UNKNOWN,D,1.0,5.0,,,,,1970-07-01,1988-09-30,1970-01-01 00:00:00,1988-12-01 00:00:00,Y,N
337,3464,BEDE,MB,MANITOBA,MANITOBA,CAN,49.22,-100.56,CST,442.00,5010180,,,UNKNOWN,F,1.0,7.0,,,,,1956-10-01,1977-07-31,1956-01-01 00:00:00,1977-12-01 00:00:00,Y,N
338,28051,WINNIPEG THE FORKS,MB,MANITOBA,MANITOBA,CAN,49.5318008,-97.0746007,CST,230.00,5023262,XWN,71579,AU8,G,1.0,8.0,ECCC - MSC,ECCC - SMC,Environment and Climate Change Canada - Meteorological Service of Canada,Environnement et Changement climatique Canada - Service météorologique du Canada,1999-11-01,2021-04-30,1999-11-01 00:00:00,2021-04-30 12:30:37,Y,N
339,6889,SCHANZENFELD,MB,MANITOBA,MANITOBA,CAN,49.08,-97.57,CST,277.40,5022623,,,DAILY CLIMATE,F,1.0,7.0,CCN,RCSC,Co-operative Climate Network,Réseau coopératif de stations climatiques,1991-03-01,2021-04-29,1991-01-01 00:00:00,2021-04-29 00:00:00,Y,N
340,3558,TURTLE MOUNTAIN 7,MB,MANITOBA,MANITOBA,CAN,49.19,-100.04,CST,499.90,5012942,,,UNKNOWN,G,1.0,9.0,,,,,1978-11-01,1981-08-31,1978-01-01 00:00:00,1981-12-01 00:00:00,Y,N
341,3497,HARDING,MB,MANITOBA,MANITOBA,CAN,50.02,-100.3,CST,472.40,5011275,,,UNKNOWN,F,1.0,7.0,,,,,1966-12-01,1983-12-31,1966-01-01 00:00:00,1983-12-31 00:00:00,Y,N
342,3690,WINNIPEG ASSINIBOINE PARK,MB,MANITOBA,MANITOBA,CAN,49.53,-97.14,CST,228.60,5023174,,,UNKNOWN,G,1.0,9.0,,,,,1989-05-01,1992-08-31,1989-01-01 00:00:00,1992-12-01 00:00:00,Y,N
343,3764,OAK POINT,MB,MANITOBA,MANITOBA,CAN,50.3,-98.01,CST,250.20,504B0NM,,,UNKNOWN,G,1.0,8.0,,,,,1973-05-01,1992-05-31,1973-01-01 00:00:00,1992-12-01 00:00:00,Y,N
344,3741,GRAND RAPIDS HYDRO,MB,MANITOBA,MANITOBA,CAN,53.0929001,-99.170004,CST,222.50,5031111,,,DAILY CLIMATE,A,1.0,1.0,CCN,RCSC,Co-operative Climate Network,Réseau coopératif de stations climatiques,1966-02-01,2019-06-04,1966-01-01 00:00:00,2019-06-04 00:00:00,N,Y
345,3654,RATHWELL,MB,MANITOBA,MANITOBA,CAN,49.41,-98.33,CST,324.20,5022335,,,DAILY CLIMATE,A,1.0,1.0,,,,,1967-05-01,2001-02-28,1967-01-01 00:00:00,2001-02-28 00:00:00,Y,N
346,3800,GRANDVIEW CDA EPF,MB,MANITOBA,MANITOBA,CAN,51.11,-100.48,CST,464.50,5041120,,,UNKNOWN,,1.0,9.0,,,,,1951-06-01,1970-02-28,1951-01-01 00:00:00,1970-12-01 00:00:00,Y,N
347,3739,GRAND BEACH PARK,MB,MANITOBA,MANITOBA,CAN,50.33,-96.35,CST,225.60,5031102,,,UNKNOWN,G,1.0,9.0,,,,,1980-06-01,1980-06-30,1980-01-01 00:00:00,1980-12-01 00:00:00,Y,N
348,3824,MOOSEHORN,MB,MANITOBA,MANITOBA,CAN,51.18,-98.37,CST,249.90,5041800,,,UNKNOWN,,1.0,9.0,,,,,1910-04-01,1966-10-31,1910-01-01 00:00:00,1966-12-01 00:00:00,Y,N
349,3506,MCCONNELL,MB,MANITOBA,MANITOBA,CAN,50.16,-100.36,CST,541.00,5011705,,,UNKNOWN,G,1.0,8.0,,,,,1966-11-01,1975-07-31,1966-01-01 00:00:00,1975-12-01 00:00:00,Y,N
350,3780,DAUPHIN A,MB,MANITOBA,MANITOBA,CAN,51.06,-100.03,CST,304.50,5040680,PDH,,AU5,B,1.0,3.0,,,,,1942-01-01,2010-07-29,1942-01-01 00:00:00,2013-10-16 07:00:00,Y,N
351,3608,HEADINGLY,MB,MANITOBA,MANITOBA,CAN,49.53,-97.28,CST,239.60,5021285,,,UNKNOWN,,1.0,9.0,,,,,1961-07-01,1966-08-31,1961-01-01 00:00:00,1966-12-01 00:00:00,Y,N
352,48972,TADOULE LAKE,MB,MANITOBA,MANITOBA,CAN,58.4222,-98.3044,CST,281.30,5062835,YBQ,71272,NCA,,,,NAVCAN,NAVCAN,NAV Canada,NAV Canada,2011-08-25,2021-04-04,2011-08-22 10:00:00,2021-04-04 23:00:00,Y,N
353,44085,LYNN LAKE,MB,MANITOBA,MANITOBA,CAN,56.515,-101.0434,CST,356.60,5061648,PNK,,AU5,,,,,,,,2005-06-01,2014-07-22,2005-06-01 00:00:00,2014-07-22 00:00:00,Y,N
354,3853,MCCREARY,MB,MANITOBA,MANITOBA,CAN,50.4243001,-99.3148003,CST,351.00,5043158,WOO,71149,AU8,A,1.0,1.0,ECCC - MSC,ECCC - SMC,Environment and Climate Change Canada - Meteorological Service of Canada,Environnement et Changement climatique Canada - Service météorologique du Canada,1971-05-01,2021-04-30,1971-01-01 00:00:00,2021-04-30 12:30:37,Y,Y
355,3650,PILOT MOUND 2,MB,MANITOBA,MANITOBA,CAN,49.12,-98.54,CST,472.40,5022129,,,DAILY CLIMATE,E,1.0,6.0,,,,,1987-04-01,2005-03-31,1987-01-01 00:00:00,2005-03-31 00:00:00,Y,N
356,3910,WABOWDEN,MB,MANITOBA,MANITOBA,CAN,54.55,-98.39,CST,231.60,5063041,,,DAILY CLIMATE,G,1.0,8.0,,,,,1982-08-01,2001-09-30,1982-01-01 00:00:00,2001-09-30 00:00:00,Y,N
357,3560,VIRDEN,MB,MANITOBA,MANITOBA,CAN,49.5,-100.57,CST,445.40,5012960,,,DAILY CLIMATE,A,1.0,1.0,,,,,1890-10-01,2005-03-31,1890-01-01 00:00:00,2005-03-31 00:00:00,Y,Y
358,3815,LUNDAR,MB,MANITOBA,MANITOBA,CAN,50.45,-97.56,CST,266.70,5041587,,,UNKNOWN,D,1.0,5.0,,,,,1969-06-01,2000-01-31,1969-01-01 00:00:00,2000-01-31 00:00:00,Y,N
359,3647,PILOT MOUND,MB,MANITOBA,MANITOBA,CAN,49.07,-98.48,CST,472.10,5022119,,,UNKNOWN,,1.0,9.0,,,,,1885-04-01,1899-02-28,1885-01-01 00:00:00,1899-12-01 00:00:00,Y,N
360,3566,WAWANESA EAST,MB,MANITOBA,MANITOBA,CAN,49.35,-99.36,CST,373.40,5013130,,,UNKNOWN,G,1.0,9.0,,,,,1984-09-01,1985-11-30,1984-01-01 00:00:00,1985-12-01 00:00:00,Y,N
361,3897,RED SUCKER LAKE A,MB,MANITOBA,MANITOBA,CAN,54.1,-93.33,CST,227.60,5062337,,,UNKNOWN,G,1.0,9.0,,,,,1985-10-01,1989-03-31,1985-01-01 00:00:00,1989-03-31 00:00:00,Y,N
362,3817,MACDONALD,MB,MANITOBA,MANITOBA,CAN,50.1,-98.3,CST,249.90,5041670,,,DAILY CLIMATE,A,1.0,2.0,,,,,1967-05-01,2008-12-31,1967-01-01 00:00:00,2008-12-31 00:00:00,Y,Y
363,3752,PINE DOCK,MB,MANITOBA,MANITOBA,CAN,51.38,-96.48,CST,219.50,5032163,,,DAILY CLIMATE,C,1.0,4.0,,,,,1966-08-01,1997-09-30,1966-01-01 00:00:00,1997-09-30 00:00:00,Y,N
364,3580,CARTWRIGHT 2,MB,MANITOBA,MANITOBA,CAN,49.1,-99.31,CST,467.30,50205N5,,,UNKNOWN,,1.0,9.0,,,,,1887-09-01,1900-08-31,1887-01-01 00:00:00,1900-12-01 00:00:00,Y,N
365,5009,DUCK BAY,MB,MANITOBA,MANITOBA,CAN,52.07,-100.12,CST,253.80,5040789,,,,G,1.0,8.0,,,,,1991-03-01,1994-04-30,1991-01-01 00:00:00,1994-12-01 00:00:00,Y,N
366,3809,KERGWENAN,MB,MANITOBA,MANITOBA,CAN,50.57,-99.32,CST,280.40,5041450,,,UNKNOWN,G,1.0,8.0,,,,,1982-07-01,1986-03-31,1982-01-01 00:00:00,1986-12-01 00:00:00,Y,N
367,3838,PINE RIVER,MB,MANITOBA,MANITOBA,CAN,51.48,-100.34,CST,378.00,5042169,,,UNKNOWN,D,1.0,5.0,,,,,1981-11-01,2002-05-31,1981-01-01 00:00:00,2002-05-31 00:00:00,Y,N
368,29553,WALKER LAKE,MB,MANITOBA,MANITOBA,CAN,54.47,-97.0,CST,200.00,5063075,,,AU7,G,1.0,9.0,,,,,1999-12-01,2007-08-31,1999-12-01 00:00:00,2007-08-31 00:00:00,Y,N
369,3648,PILOT MOUND,MB,MANITOBA,MANITOBA,CAN,49.12,-98.53,CST,474.60,5022120,,,UNKNOWN,,1.0,9.0,,,,,1883-05-01,1957-05-31,1883-01-01 00:00:00,1957-12-01 00:00:00,Y,N
370,3874,CROSS LAKE A,MB,MANITOBA,MANITOBA,CAN,54.37,-97.46,CST,216.10,5060621,,,UNKNOWN,G,1.0,8.0,,,,,1987-11-01,2010-12-30,1987-01-01 00:00:00,2010-12-30 00:00:00,Y,N
371,3664,ST CLAUDE,MB,MANITOBA,MANITOBA,CAN,49.39,-98.22,CST,310.60,5022550,,,DAILY CLIMATE,C,1.0,4.0,CCN,RCSC,Co-operative Climate Network,Réseau coopératif de stations climatiques,1964-05-01,2018-04-05,1964-01-01 00:00:00,2018-04-05 00:00:00,Y,Y
372,3715,OSTENFELD,MB,MANITOBA,MANITOBA,CAN,49.49,-96.29,CST,274.30,503B0NE,,,DAILY CLIMATE,D,1.0,5.0,,,,,1973-06-01,2005-03-31,1973-01-01 00:00:00,2005-03-31 00:00:00,Y,Y
373,53698,GILLAM A,MB,MANITOBA,MANITOBA,CAN,56.2128,-94.4239,CST,145.10,5061025,YGX,,NCA,,,,NAVCAN,NAVCAN,NAV Canada,NAV Canada,2018-10-29,2021-04-30,2015-05-14 08:00:00,2021-04-30 12:30:37,Y,N
374,3835,PAULSON,MB,MANITOBA,MANITOBA,CAN,51.08,-99.5,CST,274.00,5042062,,,UNKNOWN,,1.0,9.0,,,,,1945-04-01,1945-08-31,1945-01-01 00:00:00,1945-12-01 00:00:00,Y,N
375,43185,WINNIPEG CHARLESWOOD 2,MB,MANITOBA,MANITOBA,CAN,49.51,-97.1621,CST,238.00,5023225,,,DAILY CLIMATE,,,,CCN,RCSC,Co-operative Climate Network,Réseau coopératif de stations climatiques,2004-10-26,2021-04-29,2004-10-26 00:00:00,2021-04-29 00:00:00,Y,N
376,3726,BROAD VALLEY,MB,MANITOBA,MANITOBA,CAN,50.59,-97.28,CST,259.10,5030510,,,,C,1.0,4.0,,,,,1970-06-01,1995-01-31,1970-01-01 00:00:00,1995-01-31 00:00:00,Y,N
377,3753,PINE FALLS,MB,MANITOBA,MANITOBA,CAN,50.34,-96.13,CST,231.00,5032164,,,,D,1.0,5.0,,,,,1959-11-01,1994-10-31,1959-01-01 00:00:00,1994-12-01 00:00:00,Y,N
378,3477,CAMERON,MB,MANITOBA,MANITOBA,CAN,49.28,-100.28,CST,442.00,5010538,,,DAILY CLIMATE,E,1.0,6.0,,,,,1984-09-01,2001-01-31,1984-01-01 00:00:00,2001-01-31 00:00:00,Y,N
379,3581,CARTWRIGHT,MB,MANITOBA,MANITOBA,CAN,49.03,-99.25,CST,472.10,502055E,,,UNKNOWN,E,1.0,6.0,,,,,1979-05-01,1992-03-31,1979-01-01 00:00:00,1992-12-01 00:00:00,Y,N
380,3576,BIRDS HILL NURSERY,MB,MANITOBA,MANITOBA,CAN,49.59,-96.5,CST,256.00,5020222,,,UNKNOWN,,1.0,9.0,,,,,1969-08-01,1969-10-31,1969-01-01 00:00:00,1969-12-01 00:00:00,Y,N
381,10881,OAKPOINT MARINE,MB,MANITOBA,MANITOBA,CAN,50.2958044,-98.021203,CST,249.60,504K0NM,WOJ,71144,AU8,G,1.0,8.0,ECCC - MSC,ECCC - SMC,Environment and Climate Change Canada - Meteorological Service of Canada,Environnement et Changement climatique Canada - Service météorologique du Canada,1994-07-06,2021-04-30,1994-02-01 01:00:00,2021-04-30 12:30:37,Y,N
382,3848,STEEP ROCK,MB,MANITOBA,MANITOBA,CAN,51.27,-98.48,CST,249.90,5042774,,,DAILY CLIMATE,E,1.0,6.0,,,,,1960-02-01,2001-03-31,1960-01-01 00:00:00,2001-03-31 00:00:00,Y,N
383,3575,ANOLA,MB,MANITOBA,MANITOBA,CAN,49.53,-96.39,CST,255.10,5020069,,,UNKNOWN,G,1.0,8.0,,,,,1986-07-01,1987-10-31,1986-01-01 00:00:00,1987-12-01 00:00:00,Y,N
384,3587,DARLINGFORD,MB,MANITOBA,MANITOBA,CAN,49.07,-98.16,CST,457.20,5020670,,,UNKNOWN,G,1.0,8.0,,,,,1980-05-01,1981-12-31,1980-01-01 00:00:00,1981-12-31 00:00:00,Y,N
385,9035,VICTORIA BEACH (AUT),MB,MANITOBA,MANITOBA,CAN,50.42,-96.34,CST,220.10,5032951,WII,71552,AU8,G,1.0,8.0,ECCC - MSC,ECCC - SMC,Environment and Climate Change Canada - Meteorological Service of Canada,Environnement et Changement climatique Canada - Service météorologique du Canada,1996-06-01,2021-04-30,1996-06-01 00:00:00,2021-04-30 12:30:37,Y,N
386,3693,WINNIPEG CHARLESWOOD,MB,MANITOBA,MANITOBA,CAN,49.51,-97.17,CST,234.70,5023190,,,UNKNOWN,,1.0,9.0,,,,,1955-04-01,1966-11-30,1955-01-01 00:00:00,1966-12-01 00:00:00,Y,N
387,3651,PINEY,MB,MANITOBA,MANITOBA,CAN,49.05,-95.59,CST,331.00,5022170,,,UNKNOWN,,1.0,9.0,,,,,1959-08-01,1964-08-31,1959-01-01 00:00:00,1964-12-01 00:00:00,Y,N
388,3625,MORDEN,MB,MANITOBA,MANITOBA,CAN,49.11,-98.06,CST,302.10,5021840,,,UNKNOWN,G,1.0,9.0,,,,,1885-05-01,1971-07-31,1885-01-01 00:00:00,1971-12-01 00:00:00,Y,N
389,3777,BIRCH RIVER,MB,MANITOBA,MANITOBA,CAN,52.31,-100.55,CST,267.90,5040218,,,DAILY CLIMATE,C,1.0,4.0,,,,,1970-06-01,2000-10-31,1970-01-01 00:00:00,2000-10-31 00:00:00,Y,N
390,3597,FOXTON,MB,MANITOBA,MANITOBA,CAN,50.27,-97.21,CST,231.60,5020980,,,UNKNOWN,,1.0,9.0,,,,,1883-09-01,1898-11-30,1883-01-01 00:00:00,1898-12-01 00:00:00,Y,N
391,3468,BIRDTAIL,MB,MANITOBA,MANITOBA,CAN,50.49,-100.55,CST,577.60,5010227,,,,G,1.0,8.0,,,,,1989-06-01,1995-07-31,1989-01-01 00:00:00,1995-07-31 00:00:00,Y,N
392,3487,ERICKSON,MB,MANITOBA,MANITOBA,CAN,50.26,-99.54,CST,635.50,5010893,,,UNKNOWN,G,1.0,9.0,,,,,1971-10-01,1971-10-31,1971-01-01 00:00:00,1971-12-01 00:00:00,Y,N
393,3483,DELORAINE 2,MB,MANITOBA,MANITOBA,CAN,49.1,-100.24,CST,533.40,5010761,,,UNKNOWN,G,1.0,8.0,,,,,1953-06-01,1976-03-31,1953-01-01 00:00:00,1976-12-01 00:00:00,Y,N
394,3517,PORTAGE LA PRAIRIE,MB,MANITOBA,MANITOBA,CAN,49.58,-98.18,CST,261.20,5012280,,,UNKNOWN,G,1.0,9.0,,,,,1904-06-01,1971-09-30,1904-01-01 00:00:00,1971-12-01 00:00:00,Y,N
395,3889,MOAK LAKE,MB,MANITOBA,MANITOBA,CAN,55.55,-97.35,CST,196.00,5061770,,,UNKNOWN,G,1.0,9.0,,,,,1980-07-01,1983-08-31,1980-01-01 00:00:00,1983-12-01 00:00:00,Y,N
396,3880,ISLAND LAKE A,MB,MANITOBA,MANITOBA,CAN,53.51,-94.39,CST,235.60,5061376,YIV,71145,CON,A,1.0,1.0,,,,,1970-12-01,2015-01-15,1970-01-01 00:00:00,2015-01-15 12:00:00,N,Y
397,3688,WHITEMOUTH LAKE,MB,MANITOBA,MANITOBA,CAN,49.17,-95.45,CST,350.50,5023149,,,UNKNOWN,F,1.0,7.0,,,,,1972-09-01,1981-10-31,1972-01-01 00:00:00,1981-12-01 00:00:00,Y,N
398,3878,GILLAM A,MB,MANITOBA,MANITOBA,CAN,56.2127,-94.4238,CST,145.10,5061001,YGX,71912,CON,A,1.0,1.0,,,,,1970-10-01,2014-10-01,1970-01-01 00:00:00,2014-10-02 12:00:00,N,Y
399,3601,GNADENTHAL,MB,MANITOBA,MANITOBA,CAN,49.06,-97.48,CST,262.10,5021058,,,UNKNOWN,G,1.0,8.0,,,,,1964-03-01,1973-08-31,1964-01-01 00:00:00,1973-12-01 00:00:00,Y,N
400,3689,WINNIPEG ANDERSON AVE,MB,MANITOBA,MANITOBA,CAN,49.55,-97.09,CST,,5023170,,,UNKNOWN,,1.0,9.0,,,,,1955-04-01,1956-06-30,1955-01-01 00:00:00,1956-06-30 00:00:00,Y,N
401,7314,PINE RIVER,MB,MANITOBA,MANITOBA,CAN,51.48,-100.34,CST,378.00,5042166,,,DAILY CLIMATE,,1.0,9.0,,,,,2001-12-01,2005-04-30,2001-12-01 00:00:00,2005-04-30 00:00:00,Y,N
402,48068,EMERSON AUTO,MB,MANITOBA,MANITOBA,CAN,49.0,-97.1415,CST,242.00,5020881,WEX,71560,AU8,,,,ECCC - MSC,ECCC - SMC,Environment and Climate Change Canada - Meteorological Service of Canada,Environnement et Changement climatique Canada - Service météorologique du Canada,2009-07-23,2021-04-30,2009-06-18 10:00:00,2021-04-30 12:30:37,Y,N
403,52858,HODGSON 3,MB,MANITOBA,MANITOBA,CAN,51.124109,-97.340505,CST,231.70,5031310,,,DAILY CLIMATE,,,,CCN,RCSC,Co-operative Climate Network,Réseau coopératif de stations climatiques,2014-09-30,2021-04-14,2014-09-30 00:00:00,2021-04-14 00:00:00,Y,N
404,3736,GIMLI,MB,MANITOBA,MANITOBA,CAN,50.38,-97.01,CST,222.80,5031038,,,DAILY CLIMATE,D,1.0,5.0,,,,,1972-01-01,1991-10-31,1972-01-01 00:00:00,1991-12-01 00:00:00,Y,N
405,3908,THOMPSON ZOO,MB,MANITOBA,MANITOBA,CAN,55.4507062,-97.5158068,CST,205.70,5062926,,,DAILY CLIMATE,F,1.0,7.0,,,,,1990-06-01,2013-06-10,1990-01-01 00:00:00,2013-06-10 00:00:00,Y,N
406,3828,OCHRE RIVER,MB,MANITOBA,MANITOBA,CAN,51.04,-99.47,CST,280.40,50420E5,,,DAILY CLIMATE,C,1.0,4.0,,,,,1970-06-01,2005-10-31,1970-01-01 00:00:00,2005-10-31 00:00:00,Y,N
407,3724,BRAINTREE 1,MB,MANITOBA,MANITOBA,CAN,49.38,-95.34,CST,315.50,5030334,,,UNKNOWN,G,1.0,8.0,,,,,1983-11-01,1984-11-30,1983-01-01 00:00:00,1984-12-01 00:00:00,Y,N
408,3514,PIERSON,MB,MANITOBA,MANITOBA,CAN,49.11,-101.16,CST,469.00,5012080,,,DAILY CLIMATE,A,1.0,1.0,,,,,1904-06-01,2007-03-31,1904-01-01 00:00:00,2007-03-31 00:00:00,N,Y
409,3885,LONG SPRUCE GEN STN,MB,MANITOBA,MANITOBA,CAN,56.23,-94.22,CST,105.20,5061581,,,UNKNOWN,G,1.0,8.0,,,,,1974-02-01,1979-12-31,1974-02-01 00:00:00,1979-12-31 00:00:00,Y,N
410,3588,DARLINGFORD NORTH,MB,MANITOBA,MANITOBA,CAN,49.09,-98.16,CST,432.20,5020672,,,UNKNOWN,G,1.0,8.0,,,,,1980-10-01,1983-10-31,1980-01-01 00:00:00,1983-12-01 00:00:00,Y,N
411,3556,TURTLE MOUNTAIN 5,MB,MANITOBA,MANITOBA,CAN,49.21,-100.34,CST,464.80,5012940,,,UNKNOWN,G,1.0,9.0,,,,,1978-11-01,1979-10-31,1978-01-01 00:00:00,1979-12-01 00:00:00,Y,N
412,3658,ROSEBANK,MB,MANITOBA,MANITOBA,CAN,49.22,-98.06,CST,426.70,5022490,,,UNKNOWN,,1.0,9.0,,,,,1892-04-01,1915-07-31,1892-01-01 00:00:00,1915-12-01 00:00:00,Y,N
413,51097,WINNIPEG INTL A,MB,MANITOBA,MANITOBA,CAN,49.5436,-97.1424,CST,238.70,5023227,YWG,,NCH,,,,NAVCAN,NAVCAN,NAV Canada,NAV Canada,2018-10-30,2021-04-30,2013-01-15 11:00:00,2021-04-30 12:30:37,Y,N
414,3877,GILLAM,MB,MANITOBA,MANITOBA,CAN,56.21,-94.42,CST,138.40,5061000,,,UNKNOWN,,1.0,9.0,,,,,1943-03-01,1964-09-30,1943-01-01 00:00:00,1964-12-01 00:00:00,Y,N
415,3572,ALTONA,MB,MANITOBA,MANITOBA,CAN,49.06,-97.33,CST,247.80,5020040,,,DAILY CLIMATE,A,1.0,1.0,,,,,1948-11-01,2008-07-31,1948-01-01 00:00:00,2008-07-31 00:00:00,Y,Y
416,6895,MULVILHILL,MB,MANITOBA,MANITOBA,CAN,50.57,-98.12,CST,266.70,5041973,,,,G,1.0,8.0,,,,,1991-03-01,1995-02-28,1991-01-01 00:00:00,1995-02-28 00:00:00,Y,N
417,3607,GUNTON HATCHERY,MB,MANITOBA,MANITOBA,CAN,50.17,-97.1,CST,233.20,5021227,,,,E,1.0,6.0,,,,,1979-11-01,1996-03-31,1979-01-01 00:00:00,1996-03-31 00:00:00,Y,N
418,6891,TOLSTOI,MB,MANITOBA,MANITOBA,CAN,49.04,-96.48,CST,291.00,5022928,,,,G,1.0,9.0,,,,,1993-06-01,1994-09-30,1993-01-01 00:00:00,1994-12-01 00:00:00,Y,N
419,3781,DAUPHIN NORTH,MB,MANITOBA,MANITOBA,CAN,51.1,-100.02,CST,289.60,5040684,,,UNKNOWN,G,1.0,8.0,,,,,1983-02-01,1985-05-31,1983-01-01 00:00:00,1985-12-01 00:00:00,Y,N
420,3565,WAWANESA,MB,MANITOBA,MANITOBA,CAN,49.36,-99.41,CST,342.90,5013125,,,UNKNOWN,G,1.0,8.0,,,,,1979-10-01,1980-11-30,1979-01-01 00:00:00,1980-12-01 00:00:00,Y,N
421,3503,KENTON,MB,MANITOBA,MANITOBA,CAN,49.59,-100.35,CST,449.00,5011434,,,DAILY CLIMATE,E,1.0,6.0,,,,,1987-07-01,2006-12-31,1987-01-01 00:00:00,2006-12-31 00:00:00,Y,N
422,3694,WINNIPEG FORT WHYTE,MB,MANITOBA,MANITOBA,CAN,49.49,-97.14,CST,234.70,50232KJ,,,UNKNOWN,G,1.0,8.0,,,,,1985-10-01,1988-03-31,1985-01-01 00:00:00,1988-12-01 00:00:00,Y,N
423,3621,MIAMI HAWKEN,MB,MANITOBA,MANITOBA,CAN,49.2,-98.22,CST,449.60,5021735,,,UNKNOWN,F,1.0,7.0,,,,,1964-08-01,1975-12-31,1964-01-01 00:00:00,1975-12-31 00:00:00,Y,N
424,3508,MELITA,MB,MANITOBA,MANITOBA,CAN,49.2,-101.0,CST,442.00,5011720,,,UNKNOWN,,1.0,9.0,,,,,1936-01-01,1960-04-30,1936-01-01 00:00:00,1960-12-01 00:00:00,Y,N
425,3652,PINEY,MB,MANITOBA,MANITOBA,CAN,49.01514,-96.0021,CST,325.50,5022171,,,DAILY CLIMATE,D,1.0,5.0,,,,,1980-09-01,2012-06-18,1980-01-01 00:00:00,2012-06-18 00:00:00,Y,Y
426,3702,WINNIPEG ST JAMES,MB,MANITOBA,MANITOBA,CAN,49.53,-97.16,CST,,5023240,,,UNKNOWN,,1.0,9.0,,,,,1955-04-01,1956-10-31,1955-01-01 00:00:00,1956-12-01 00:00:00,Y,N
427,6884,POPLAR POINT,MB,MANITOBA,MANITOBA,CAN,50.03,-98.54,CST,245.40,502KKNL,,,,G,1.0,8.0,,,,,1992-10-01,1996-02-29,1992-01-01 00:00:00,1996-02-29 00:00:00,Y,N
428,3559,TURTLE MOUNTAIN 8,MB,MANITOBA,MANITOBA,CAN,49.12,-100.18,CST,533.10,5012943,,,UNKNOWN,G,1.0,8.0,,,,,1978-11-01,1980-01-31,1978-01-01 00:00:00,1980-12-01 00:00:00,Y,N
429,3670,SELKIRK,MB,MANITOBA,MANITOBA,CAN,50.1002,-96.5205,CST,226.00,5022630,,,DAILY CLIMATE,D,1.0,5.0,,,,,1963-11-01,2008-03-18,1963-01-01 00:00:00,2008-03-18 00:00:00,Y,N
430,27525,WINNIPEG A FIRE HALL,MB,MANITOBA,MANITOBA,CAN,49.54,-97.15,CST,238.90,5023223,,,CON,G,1.0,9.0,,,,,1997-11-01,2002-04-30,1997-11-01 00:00:00,2002-04-30 00:00:00,Y,N
431,3522,RAPID CITY FORREST,MB,MANITOBA,MANITOBA,CAN,50.01,-100.0,CST,487.70,5012333,,,UNKNOWN,,1.0,9.0,,,,,1885-04-01,1939-04-30,1885-01-01 00:00:00,1939-12-01 00:00:00,Y,N
432,3785,DURBAN CDA EPF,MB,MANITOBA,MANITOBA,CAN,51.56,-101.24,CST,419.10,5040840,,,UNKNOWN,F,1.0,7.0,,,,,1954-01-01,1977-04-30,1954-01-01 00:00:00,1977-12-01 00:00:00,Y,N
433,3716,HODGSON 6N,MB,MANITOBA,MANITOBA,CAN,51.18,-97.34,CST,243.80,503JC00,,,UNKNOWN,G,1.0,9.0,,,,,1972-10-01,1973-03-31,1972-01-01 00:00:00,1973-12-01 00:00:00,Y,N
434,3678,STONY MOUNTAIN,MB,MANITOBA,MANITOBA,CAN,50.07,-97.1,CST,236.20,5022791,,,DAILY CLIMATE,A,1.0,1.0,CCN,RCSC,Co-operative Climate Network,Réseau coopératif de stations climatiques,1972-01-01,2021-04-29,1972-01-01 00:00:00,2021-04-29 00:00:00,Y,Y
435,3909,WABOWDEN,MB,MANITOBA,MANITOBA,CAN,54.55,-98.38,CST,232.90,5063040,,,UNKNOWN,G,1.0,9.0,,,,,1943-03-01,1971-02-28,1943-01-01 00:00:00,1971-12-01 00:00:00,Y,N
436,53398,ISLAND LAKE A,MB,MANITOBA,MANITOBA,CAN,53.5126,-94.3913,CST,235.30,5061375,YIV,71145,NCH,,,,NAVCAN,NAVCAN,NAV Canada,NAV Canada,2015-01-15,2021-04-30,2015-01-12 20:00:00,2021-04-30 12:30:37,Y,N
437,3635,SNOWFLAKE 4NE,MB,MANITOBA,MANITOBA,CAN,49.05,-98.39,CST,474.60,5022G04,,,,F,1.0,7.0,,,,,1987-09-01,1995-10-31,1987-01-01 00:00:00,1995-10-31 00:00:00,Y,N
438,29794,MISSI,MB,MANITOBA,MANITOBA,CAN,57.19,-98.1,CST,265.00,5061765,,,AU7,G,1.0,9.0,,,,,2000-01-01,2007-11-30,2000-01-01 00:00:00,2007-11-30 00:00:00,Y,N
439,3879,GODS LAKE NARROWS A,MB,MANITOBA,MANITOBA,CAN,54.33,-94.29,CST,189.00,5061067,,,DAILY CLIMATE,G,1.0,8.0,,,,,1985-10-01,2002-10-31,1985-01-01 00:00:00,2002-10-31 00:00:00,Y,N
440,3657,ROSEAU RIVER,MB,MANITOBA,MANITOBA,CAN,49.13,-96.5,CST,282.20,5022488,,,UNKNOWN,G,1.0,8.0,,,,,1979-08-01,1980-08-31,1979-01-01 00:00:00,1980-12-01 00:00:00,Y,N
441,3457,RIVERS PETTAPIECE,MB,MANITOBA,MANITOBA,CAN,50.06294,-100.10445,CST,487.50,501BMMA,,,DAILY CLIMATE,E,1.0,6.0,CCN,RCSC,Co-operative Climate Network,Réseau coopératif de stations climatiques,1987-07-01,2021-04-29,1987-01-01 00:00:00,2021-04-29 00:00:00,Y,N
442,3731,FALCON LAKE TCPL 45,MB,MANITOBA,MANITOBA,CAN,49.41,-95.22,CST,338.30,5030912,,,UNKNOWN,D,1.0,5.0,,,,,1969-12-01,1997-09-30,1969-01-01 00:00:00,1997-09-30 00:00:00,Y,N
443,3478,CARBERRY,MB,MANITOBA,MANITOBA,CAN,49.52,-99.21,CST,385.00,5010548,,,DAILY CLIMATE,E,1.0,6.0,,,,,1962-07-01,1999-11-30,1962-01-01 00:00:00,1999-11-30 00:00:00,Y,N
444,3544,SOMERSET,MB,MANITOBA,MANITOBA,CAN,49.27,-98.37,CST,487.80,5012710,,,UNKNOWN,C,1.0,4.0,,,,,1970-05-01,1998-01-31,1970-01-01 00:00:00,1998-01-31 00:00:00,Y,N
445,3564,WASKADA,MB,MANITOBA,MANITOBA,CAN,49.02,-100.45,CST,469.40,5013120,,,UNKNOWN,F,1.0,7.0,,,,,1924-04-01,1987-03-31,1924-01-01 00:00:00,1987-12-01 00:00:00,Y,N
446,3512,OLHA,MB,MANITOBA,MANITOBA,CAN,50.4,-100.33,CST,621.80,501205N,,,,F,1.0,7.0,,,,,1966-11-01,1995-01-31,1966-01-01 00:00:00,1995-01-31 00:00:00,Y,N
447,3822,MCCREARY,MB,MANITOBA,MANITOBA,CAN,50.44,-99.25,CST,297.20,5041707,,,DAILY CLIMATE,D,1.0,5.0,,,,,1973-05-01,1994-08-31,1973-01-01 00:00:00,1994-12-01 00:00:00,Y,N
448,3605,GRETNA (AUT),MB,MANITOBA,MANITOBA,CAN,49.0151004,-97.3336003,CST,252.60,5021220,WGN,71441,AU8,G,1.0,8.0,ECCC - MSC,ECCC - SMC,Environment and Climate Change Canada - Meteorological Service of Canada,Environnement et Changement climatique Canada - Service météorologique du Canada,1885-04-01,2021-04-30,1885-01-01 00:00:00,2021-04-30 12:30:37,Y,N
449,3875,CROSS LAKE JENPEG,MB,MANITOBA,MANITOBA,CAN,54.3223,-98.0149,CST,218.80,5060623,,,DAILY CLIMATE,D,1.0,5.0,CCN,RCSC,Co-operative Climate Network,Réseau coopératif de stations climatiques,1972-05-01,2017-11-22,1972-01-01 00:00:00,2018-01-19 23:00:00,Y,N
450,3899,RUTTAN LAKE,MB,MANITOBA,MANITOBA,CAN,56.29,-99.39,CST,288.60,5062529,,,UNKNOWN,E,1.0,6.0,,,,,1973-12-01,1991-05-31,1973-01-01 00:00:00,1991-11-01 00:00:00,Y,N
451,3640,NIVERVILLE,MB,MANITOBA,MANITOBA,CAN,49.36,-97.03,CST,236.80,5022043,,,UNKNOWN,D,1.0,5.0,,,,,1961-06-01,1992-01-31,1961-01-01 00:00:00,1992-12-01 00:00:00,Y,N
452,3861,OONIKUP,MB,MANITOBA,MANITOBA,CAN,53.3,-101.2,CST,,50520EE,,,UNKNOWN,,1.0,9.0,,,,,1889-11-01,1903-05-31,1889-01-01 00:00:00,1903-05-31 00:00:00,Y,N
453,52758,GILLAM A,MB,MANITOBA,MANITOBA,CAN,56.2128,-94.4239,CST,145.10,5061022,YGX,71912,NCH,,,,NAVCAN,NAVCAN,NAV Canada,NAV Canada,2014-10-02,2021-04-30,2014-09-30 09:00:00,2021-04-30 12:30:37,Y,N
454,3490,FORT ELLICE,MB,MANITOBA,MANITOBA,CAN,50.25,-101.14,CST,,5010977,,,UNKNOWN,,1.0,9.0,,,,,1883-04-01,1894-09-30,1883-01-01 00:00:00,1894-12-01 00:00:00,Y,N
455,6879,ROBLIN FRIESEN 3 NORTHWEST,MB,MANITOBA,MANITOBA,CAN,51.16,-101.24,CST,556.40,501B4G2,,,DAILY CLIMATE,F,1.0,7.0,CCN,RCSC,Co-operative Climate Network,Réseau coopératif de stations climatiques,1991-03-01,2021-04-27,1991-01-01 00:00:00,2021-04-27 00:00:00,Y,N
456,3661,STE ANNE,MB,MANITOBA,MANITOBA,CAN,49.4,-96.38,CST,251.50,502254Q,,,DAILY CLIMATE,E,1.0,6.0,,,,,1979-05-01,2000-05-31,1979-01-01 00:00:00,2000-05-31 00:00:00,Y,N
457,3757,ROSS,MB,MANITOBA,MANITOBA,CAN,49.46,-96.26,CST,274.30,5032495,,,UNKNOWN,F,1.0,7.0,,,,,1967-05-01,1977-08-31,1967-01-01 00:00:00,1977-12-01 00:00:00,Y,N
458,3626,MORDEN CDA,MB,MANITOBA,MANITOBA,CAN,49.11,-98.05,CST,297.50,5021848,,,DAILY CLIMATE,A,1.0,1.0,,,,,1918-03-01,1998-11-30,1918-01-01 00:00:00,1998-11-30 00:00:00,Y,N
459,3840,PLUMAS,MB,MANITOBA,MANITOBA,CAN,50.25,-99.02,CST,275.80,5042241,,,,E,1.0,6.0,,,,,1970-11-01,1988-10-31,1970-01-01 00:00:00,1988-12-01 00:00:00,Y,N
460,3637,NINETTE 1 NW,MB,MANITOBA,MANITOBA,CAN,49.25,-99.39,CST,419.10,50220M0,,,DAILY CLIMATE,D,1.0,5.0,,,,,1976-11-01,1996-05-31,1976-01-01 00:00:00,1996-05-31 00:00:00,Y,N
461,3847,SIDNEY,MB,MANITOBA,MANITOBA,CAN,49.54,-99.05,CST,373.40,5042678,,,UNKNOWN,G,1.0,9.0,,,,,1989-09-01,1990-02-28,1989-01-01 00:00:00,1990-12-01 00:00:00,Y,N
462,3728,CHANNEL ISLAND,MB,MANITOBA,MANITOBA,CAN,52.18,-97.23,CST,216.40,5030556,,,UNKNOWN,,1.0,9.0,,,,,1886-09-01,1904-12-31,1886-01-01 00:00:00,1904-12-31 00:00:00,Y,N
463,3632,MYRTLE 2,MB,MANITOBA,MANITOBA,CAN,49.2,-97.46,CST,251.50,5021977,,,UNKNOWN,A,1.0,2.0,,,,,1968-06-01,1999-09-30,1968-01-01 00:00:00,1999-09-30 00:00:00,Y,N
464,3672,SPERLING,MB,MANITOBA,MANITOBA,CAN,49.3,-97.42,CST,243.20,5022740,,,DAILY CLIMATE,A,1.0,2.0,,,,,1969-05-01,2003-10-31,1969-01-01 00:00:00,2003-10-31 00:00:00,Y,N
465,54658,CROSS LAKE JENPEG 2,MB,MANITOBA,MANITOBA,CAN,54.3223,-98.0149,CST,218.80,5060622,PJP,71106,AU7,,,,ECCC - MSC,ECCC - SMC,Environment and Climate Change Canada - Meteorological Service of Canada,Environnement et Changement climatique Canada - Service météorologique du Canada,2017-11-23,2021-04-30,2017-11-23 00:00:00,2021-04-30 12:30:37,Y,N
466,3586,DACOTAH,MB,MANITOBA,MANITOBA,CAN,49.52,-97.39,CST,240.80,5020648,,,UNKNOWN,G,1.0,8.0,,,,,1971-06-01,1975-09-30,1971-01-01 00:00:00,1975-12-01 00:00:00,Y,N
467,3466,BELMONT,MB,MANITOBA,MANITOBA,CAN,49.18,-99.27,CST,481.60,5010191,,,DAILY CLIMATE,E,1.0,6.0,,,,,1984-08-01,2016-10-12,1984-01-01 00:00:00,2016-10-12 00:00:00,Y,N
468,3573,ALTONA CFAM,MB,MANITOBA,MANITOBA,CAN,49.06,-97.33,CST,247.50,5020050,,,UNKNOWN,,1.0,9.0,,,,,1959-09-01,1968-07-31,1959-01-01 00:00:00,1968-12-01 00:00:00,Y,N
469,3604,GREENWOOD,MB,MANITOBA,MANITOBA,CAN,50.27,-97.12,CST,,5021210,,,UNKNOWN,,1.0,9.0,,,,,1885-04-01,1899-09-30,1885-01-01 00:00:00,1899-12-01 00:00:00,Y,N
470,3461,ALEXANDER,MB,MANITOBA,MANITOBA,CAN,49.5,-100.18,CST,427.00,5010033,,,DAILY CLIMATE,D,1.0,5.0,,,,,1979-05-01,1999-09-30,1979-01-01 00:00:00,1999-09-30 00:00:00,Y,N
471,3675,STEINBACH,MB,MANITOBA,MANITOBA,CAN,49.32,-96.46,CST,253.60,5022780,,,DAILY CLIMATE,A,1.0,1.0,,,,,1956-01-01,2005-03-31,1956-01-01 00:00:00,2005-03-31 00:00:00,Y,Y
472,3598,MANITOU NORTH,MB,MANITOBA,MANITOBA,CAN,49.16,-98.31,CST,487.70,5021F8Q,,,UNKNOWN,G,1.0,9.0,,,,,1981-09-01,1981-09-30,1981-01-01 00:00:00,1981-12-01 00:00:00,Y,N
473,3837,PINE RIVER,MB,MANITOBA,MANITOBA,CAN,51.46,-100.19,CST,302.10,5042168,,,UNKNOWN,E,1.0,6.0,,,,,1970-06-01,1984-04-30,1970-01-01 00:00:00,1984-12-01 00:00:00,Y,N
474,6890,STUARTBURN,MB,MANITOBA,MANITOBA,CAN,49.08,-96.47,CST,289.60,5022797,,,DAILY CLIMATE,F,1.0,7.0,,,,,1993-06-01,2003-10-31,1993-01-01 00:00:00,2003-10-31 00:00:00,Y,N
475,3662,ST ANDREWS,MB,MANITOBA,MANITOBA,CAN,50.05,-96.59,CST,230.10,5022547,,,NONE,G,1.0,8.0,,,,,1874-01-01,1992-07-31,1874-01-01 00:00:00,1992-12-01 00:00:00,Y,N
476,3550,TREHERNE 8N,MB,MANITOBA,MANITOBA,CAN,49.44,-98.45,CST,337.10,5012931,,,UNKNOWN,G,1.0,8.0,,,,,1970-06-01,1973-11-30,1970-01-01 00:00:00,1973-12-01 00:00:00,Y,N
477,3486,ELKHORN,MB,MANITOBA,MANITOBA,CAN,49.58,-101.14,CST,499.00,5010868,,,UNKNOWN,G,1.0,9.0,,,,,1891-08-01,1987-08-31,1891-01-01 00:00:00,1987-12-01 00:00:00,Y,N
478,3665,STE ELIZABETH,MB,MANITOBA,MANITOBA,CAN,49.19,-97.1,CST,239.00,5022553,,,UNKNOWN,E,1.0,6.0,,,,,1973-04-01,1989-11-30,1973-01-01 00:00:00,1989-12-01 00:00:00,Y,N
479,3747,MATHESON ISLAND,MB,MANITOBA,MANITOBA,CAN,51.43,-96.54,CST,221.00,5031700,,,UNKNOWN,,1.0,9.0,,,,,1963-06-01,1966-04-30,1963-01-01 00:00:00,1966-12-01 00:00:00,Y,N
480,3462,ARROW RIVER,MB,MANITOBA,MANITOBA,CAN,50.1,-100.51,CST,486.20,5010114,,,UNKNOWN,G,1.0,9.0,,,,,1982-10-01,1983-08-31,1982-01-01 00:00:00,1983-12-01 00:00:00,Y,N
481,26963,EMERSON AUT,MB,MANITOBA,MANITOBA,CAN,49.0,-97.1415,CST,242.00,5020882,WEX,71560,AU5,G,1.0,8.0,,,,,1997-04-01,2009-08-22,1996-11-27 08:00:00,2009-08-23 00:00:00,Y,N
482,3737,GIMLI A,MB,MANITOBA,MANITOBA,CAN,50.38,-97.03,CST,222.20,5031040,,,UNKNOWN,G,1.0,8.0,,,,,1944-03-01,1971-12-31,1944-01-01 00:00:00,1971-12-31 23:00:00,Y,N
483,3668,ST MALO,MB,MANITOBA,MANITOBA,CAN,49.19,-96.57,CST,263.00,5022601,,,DAILY CLIMATE,F,1.0,7.0,,,,,1980-05-01,2008-05-31,1980-01-01 00:00:00,2008-05-31 00:00:00,Y,N
484,3501,HILLVIEW,MB,MANITOBA,MANITOBA,CAN,49.55,-100.33,CST,426.70,5011293,,,UNKNOWN,,1.0,9.0,,,,,1885-06-01,1920-11-30,1885-01-01 00:00:00,1920-12-01 00:00:00,Y,N
485,3871,CHURCHILL A,MB,MANITOBA,MANITOBA,CAN,58.4421,-94.0359,CST,29.30,5060600,YYQ,,FSS,A,1.0,1.0,,,,,1943-01-01,2008-07-24,1943-01-01 00:00:00,2012-04-12 12:00:00,N,Y
486,3520,PORTAGE LA PRAIRIE 2,MB,MANITOBA,MANITOBA,CAN,49.59,-98.19,CST,261.20,5012322,,,,C,1.0,4.0,,,,,1962-10-01,1996-08-31,1962-01-01 00:00:00,1996-08-31 00:00:00,Y,N
487,3552,TURTLE MOUNTAIN 1,MB,MANITOBA,MANITOBA,CAN,49.03,-100.33,CST,563.90,5012936,,,UNKNOWN,G,1.0,9.0,,,,,1978-10-01,1979-09-30,1978-01-01 00:00:00,1979-12-01 00:00:00,Y,N
488,3571,ALMASIPPI,MB,MANITOBA,MANITOBA,CAN,49.33,-98.12,CST,274.30,5020036,,,UNKNOWN,,1.0,9.0,,,,,1902-05-01,1925-06-30,1902-01-01 00:00:00,1925-12-01 00:00:00,Y,N
489,10927,SHOAL LAKE CS,MB,MANITOBA,MANITOBA,CAN,50.27176,-100.36126,CST,561.30,5012654,WUT,71150,AU8,G,1.0,8.0,ECCC - MSC,ECCC - SMC,Environment and Climate Change Canada - Meteorological Service of Canada,Environnement et Changement climatique Canada - Service météorologique du Canada,1993-05-07,2021-04-30,1993-05-07 00:00:00,2021-04-30 12:30:37,Y,N
490,3660,ROSSER,MB,MANITOBA,MANITOBA,CAN,49.59,-97.15,CST,236.20,5022504,,,UNKNOWN,,1.0,9.0,,,,,1964-11-01,1969-09-30,1964-01-01 00:00:00,1969-12-01 00:00:00,Y,N
491,6881,MELITA 2,MB,MANITOBA,MANITOBA,CAN,49.17,-100.59,CST,422.00,5011721,,,,G,1.0,8.0,,,,,1991-05-01,1995-05-31,1991-01-01 00:00:00,1995-05-31 00:00:00,Y,N
492,3774,BEAVER,MB,MANITOBA,MANITOBA,CAN,50.01,-98.42,CST,262.70,5040165,,,UNKNOWN,,1.0,9.0,,,,,1887-06-01,1907-10-31,1887-01-01 00:00:00,1907-12-01 00:00:00,Y,N
493,6887,ST JEAN BAPTISTE,MB,MANITOBA,MANITOBA,CAN,49.16,-97.24,CST,237.70,5022567,,,DAILY CLIMATE,G,1.0,9.0,,,,,1993-12-01,1997-12-31,1993-01-01 00:00:00,1997-12-31 00:00:00,Y,N
494,3746,INDIAN BAY,MB,MANITOBA,MANITOBA,CAN,49.3726,-95.115,CST,326.70,5031320,,,DAILY CLIMATE,A,1.0,1.0,CCN,RCSC,Co-operative Climate Network,Réseau coopératif de stations climatiques,1915-04-01,2021-04-29,1915-01-01 00:00:00,2021-04-29 00:00:00,N,Y
495,3870,BROCHET A,MB,MANITOBA,MANITOBA,CAN,57.53104,-101.40532,CST,346.30,5060520,,,DAILY CLIMATE,E,1.0,6.0,,,,,1948-08-01,2009-09-30,1948-01-01 00:00:00,2009-09-30 00:00:00,Y,N
496,50821,BRANDON A,MB,MANITOBA,MANITOBA,CAN,49.5436,-99.5708,CST,409.30,5010481,YBR,71140,NCH,,,,NAVCAN,NAVCAN,NAV Canada,NAV Canada,2012-12-06,2021-04-30,2012-12-03 11:00:00,2021-04-30 12:30:37,Y,N
497,3765,CAYER,MB,MANITOBA,MANITOBA,CAN,51.15,-99.05,CST,259.10,5040EN5,,,UNKNOWN,F,1.0,7.0,,,,,1972-06-01,1981-09-30,1972-01-01 00:00:00,1981-12-01 00:00:00,Y,N
498,3833,OCHRE RIVER SOUTH,MB,MANITOBA,MANITOBA,CAN,50.59,-99.47,CST,315.20,504205E,,,UNKNOWN,G,1.0,9.0,,,,,1979-06-01,1980-03-31,1979-01-01 00:00:00,1980-12-01 00:00:00,Y,N
499,3591,DOMINION CITY,MB,MANITOBA,MANITOBA,CAN,49.09,-97.09,CST,239.60,5020770,,,UNKNOWN,,1.0,9.0,,,,,1967-06-01,1969-11-30,1967-01-01 00:00:00,1969-12-01 00:00:00,Y,N
500,3579,BOISSEVAIN 2,MB,MANITOBA,MANITOBA,CAN,49.13,-100.05,CST,525.80,5020321,,,UNKNOWN,,1.0,9.0,,,,,1948-11-01,1970-03-31,1948-01-01 00:00:00,1970-12-01 00:00:00,Y,N
501,3789,ERIKSDALE 2,MB,MANITOBA,MANITOBA,CAN,50.53,-98.0,CST,267.30,5040897,,,UNKNOWN,,1.0,9.0,,,,,1962-06-01,1969-07-31,1962-01-01 00:00:00,1969-12-01 00:00:00,Y,N
502,3806,KATRIME EXP ST,MB,MANITOBA,MANITOBA,CAN,50.05,-98.41,CST,270.40,5041400,,,UNKNOWN,,1.0,9.0,,,,,1951-01-01,1960-12-31,1951-01-01 00:00:00,1960-12-31 00:00:00,Y,N
503,3903,SOUTH INDIAN LAKE,MB,MANITOBA,MANITOBA,CAN,56.47,-98.58,CST,259.10,5062734,,,UNKNOWN,F,1.0,7.0,,,,,1976-06-01,1989-06-30,1976-01-01 00:00:00,1989-12-01 00:00:00,Y,N
504,3779,DAUPHIN,MB,MANITOBA,MANITOBA,CAN,51.09,-100.02,CST,291.70,5040675,,,UNKNOWN,G,1.0,8.0,,,,,1890-01-01,1997-05-31,1890-01-01 00:00:00,1997-05-31 00:00:00,Y,N
505,3536,ST LAZARE,MB,MANITOBA,MANITOBA,CAN,50.26,-101.18,CST,502.90,5012600,,,UNKNOWN,,1.0,9.0,,,,,1954-01-01,1954-04-30,1954-01-01 00:00:00,1954-12-01 00:00:00,Y,N
506,3467,BINSCARTH,MB,MANITOBA,MANITOBA,CAN,50.35,-101.16,CST,525.80,5010216,,,DAILY CLIMATE,A,1.0,1.0,,,,,1973-05-01,2005-10-31,1973-01-01 00:00:00,2005-10-31 00:00:00,Y,Y
507,3858,FLIN FLON A,MB,MANITOBA,MANITOBA,CAN,54.41,-101.41,CST,303.90,5050960,YFO,,CON,A,1.0,1.0,,,,,1968-12-01,2017-12-31,1954-01-02 09:00:00,2017-12-31 00:00:00,N,Y
508,3884,LIMESTONE GS,MB,MANITOBA,MANITOBA,CAN,56.3,-94.11,CST,88.40,5061567,,,UNKNOWN,G,1.0,8.0,,,,,1985-10-01,1992-09-30,1985-01-01 00:00:00,1992-12-01 00:00:00,Y,N
509,3534,ST ALBANS,MB,MANITOBA,MANITOBA,CAN,49.42,-99.33,CST,359.70,5012540,,,UNKNOWN,,1.0,9.0,,,,,1885-01-01,1960-10-31,1885-01-01 00:00:00,1960-12-01 00:00:00,Y,N
510,27000,WINNIPEG HANGARLINE ROAD,MB,MANITOBA,MANITOBA,CAN,49.55,-97.14,CST,238.70,5023224,,,DAILY CLIMATE,G,1.0,8.0,,,,,1994-07-01,1997-05-31,1994-01-01 00:00:00,1997-05-31 00:00:00,Y,N
511,3834,OVERFLOWING RIVER,MB,MANITOBA,MANITOBA,CAN,53.09,-101.06,CST,257.90,5042058,,,,G,1.0,8.0,,,,,1984-06-01,1993-05-31,1984-01-01 00:00:00,1993-12-01 00:00:00,Y,N
512,3846,STE ROSE,MB,MANITOBA,MANITOBA,CAN,51.02,-99.23,CST,274.30,5042610,,,DAILY CLIMATE,D,1.0,5.0,,,,,1975-08-01,2009-07-27,1975-01-01 00:00:00,2009-07-27 00:00:00,Y,Y
513,3562,WASAGAMING,MB,MANITOBA,MANITOBA,CAN,50.3918006,-99.5631008,CST,627.40,5013117,WWP,71444,AU8,C,1.0,4.0,ECCC - MSC,ECCC - SMC,Environment and Climate Change Canada - Meteorological Service of Canada,Environnement et Changement climatique Canada - Service météorologique du Canada,1966-03-01,2021-04-30,1966-01-01 00:00:00,2021-04-30 12:30:37,Y,N
514,3671,SNOWFLAKE,MB,MANITOBA,MANITOBA,CAN,49.04,-98.39,CST,474.00,5022703,,,DAILY CLIMATE,F,1.0,7.0,,,,,1987-09-01,2011-05-30,1987-01-01 00:00:00,2011-05-30 00:00:00,Y,N
515,3532,ROSSBURN 10N,MB,MANITOBA,MANITOBA,CAN,50.48,-100.5,CST,533.40,5012501,,,UNKNOWN,G,1.0,8.0,,,,,1971-06-01,1980-09-30,1971-01-01 00:00:00,1980-12-01 00:00:00,Y,N
516,3758,STE GENEVIEVE,MB,MANITOBA,MANITOBA,CAN,49.45,-96.36,CST,256.00,5032560,,,,G,1.0,8.0,,,,,1950-06-01,1995-10-31,1950-01-01 00:00:00,1995-10-31 00:00:00,Y,N
517,3645,PETERSFIELD,MB,MANITOBA,MANITOBA,CAN,50.19,-96.59,CST,222.50,5022070,,,UNKNOWN,G,1.0,8.0,,,,,1960-08-01,1977-05-31,1960-01-01 00:00:00,1977-12-01 00:00:00,Y,N
518,30554,LUNDAR EAST,MB,MANITOBA,MANITOBA,CAN,50.4302,-97.5115,CST,269.70,5041589,,,DAILY CLIMATE,G,1.0,9.0,,,,,2000-08-01,2007-10-31,2000-08-01 00:00:00,2007-10-31 00:00:00,Y,N
519,3489,FAIRFAX,MB,MANITOBA,MANITOBA,CAN,49.25,-100.08,CST,480.10,5010906,,,UNKNOWN,G,1.0,8.0,,,,,1987-09-01,1990-11-30,1987-01-01 00:00:00,1990-12-01 00:00:00,Y,N
520,3819,MACGREGOR,MB,MANITOBA,MANITOBA,CAN,49.54,-98.42,CST,300.80,5041684,,,,F,1.0,7.0,,,,,1973-05-01,1996-09-30,1973-01-01 00:00:00,1996-09-30 00:00:00,Y,N
521,29795,RAT RIVER,MB,MANITOBA,MANITOBA,CAN,56.08,-99.29,CST,250.00,5062336,,,AU7,G,1.0,9.0,,,,,2000-02-01,2001-08-31,2000-02-01 00:00:00,2001-08-31 00:00:00,Y,N
522,3756,RIVERTON,MB,MANITOBA,MANITOBA,CAN,50.59,-96.59,CST,220.40,5032443,,,UNKNOWN,,1.0,9.0,,,,,1967-07-01,1969-03-31,1967-01-01 00:00:00,1969-12-01 00:00:00,Y,N
523,3516,PORTAGE LA PRAIRIE,MB,MANITOBA,MANITOBA,CAN,49.58,-98.18,CST,261.20,5012279,,,UNKNOWN,,1.0,9.0,,,,,1886-01-01,1918-06-30,1886-01-01 00:00:00,1918-12-01 00:00:00,Y,N
524,3496,HAMIOTA 2,MB,MANITOBA,MANITOBA,CAN,50.11,-100.36,CST,519.70,5011241,,,DAILY CLIMATE,F,1.0,7.0,,,,,1975-08-01,2002-06-30,1975-01-01 00:00:00,2002-06-30 00:00:00,Y,N
525,3891,NOTIGI,MB,MANITOBA,MANITOBA,CAN,55.54,-99.22,CST,262.10,5062049,,,UNKNOWN,G,1.0,8.0,,,,,1973-10-01,1975-11-30,1973-01-01 00:00:00,1975-12-01 00:00:00,Y,N
526,3873,CONLIN LAKE WABOWDEN,MB,MANITOBA,MANITOBA,CAN,54.5,-98.4,CST,221.00,5060613,,,UNKNOWN,G,1.0,9.0,,,,,1977-10-01,1978-04-30,1977-01-01 00:00:00,1978-12-01 00:00:00,Y,N
527,3727,BROKENHEAD,MB,MANITOBA,MANITOBA,CAN,50.16,-96.31,CST,228.60,5030523,,,UNKNOWN,G,1.0,9.0,,,,,1981-08-01,1984-10-31,1981-01-01 00:00:00,1984-12-01 00:00:00,Y,N
528,3474,BRANDON #1 WINTER BAY,MB,MANITOBA,MANITOBA,CAN,49.5,-99.59,CST,396.00,5010498,,,DAILY CLIMATE,E,1.0,6.0,,,,,1987-07-01,2002-04-30,1987-01-01 00:00:00,2002-04-30 00:00:00,Y,N
529,3742,GREAT FALLS,MB,MANITOBA,MANITOBA,CAN,50.28,-96.0,CST,248.70,5031200,,,DAILY CLIMATE,C,1.0,4.0,,,,,1922-09-01,2003-01-31,1922-01-01 00:00:00,2003-01-31 00:00:00,Y,N
530,3465,BELMONT,MB,MANITOBA,MANITOBA,CAN,49.24,-99.26,CST,447.40,5010190,,,UNKNOWN,,1.0,9.0,,,,,1891-11-01,1906-07-31,1891-01-01 00:00:00,1906-12-01 00:00:00,Y,N
